city,country,population,lat,lng,store_count,stores_per_100k
Dhaka,Bangladesh,16800000.0,23.7841798,89.9285983,0,0.0
Gujranwala Division,Pakistan,16123984.0,32.45,74.13333,0,0.0
Victoria Island,Nigeria,15388000.0,6.429984,3.4022449,0,0.0
Lagos,Nigeria,15070000.0,6.45407,3.39467,0,0.0
Kinshasa,Democratic Republic of the Congo,14565700.0,-4.32758,15.31357,0,0.0
Lahore,Pakistan,12978661.0,31.558,74.35071,0,0.0
Suzhou,China,12748262.0,33.6482366,116.9588062,0,0.0
Suzhou,China,12748262.0,39.578504,98.812274,0,0.0
Karachi,Pakistan,11624219.0,24.8608,67.0104,0,0.0
North 24 Parganas,India,10009781.0,22.13,88.5,0,0.0
Nanyang,China,9713112.0,33.0010496,112.5292693,0,0.0
Pune Division,India,9429408.0,18.74673,73.75465,0,0.0
Zhoukou,China,9026015.0,33.808333,114.911944,0,0.0
Heze,China,8795939.0,35.2477266,115.4464761,0,0.0
Quanzhou,China,8782285.0,25.1901863,118.338717,0,0.0
Tehran,Iran,8693706.0,35.69439,51.42151,0,0.0
Jining,China,8357897.0,40.9973725,113.1600076,0,0.0
South 24 Parganas,India,8161961.0,22.16197,88.4317,0,0.0
Baghdad,Iraq,8126755.0,33.34058,44.40088,0,0.0
Ahmedabad,India,7645000.0,23.02579,72.58727,0,0.0
Wuxi,China,7462135.0,31.4794502,108.6788823,0,0.0
Dalian,China,7450785.0,39.740278,122.255833,0,0.0
Zhumadian,China,7008427.0,33.0115818,114.0164565,0,0.0
Bijie,China,6899636.0,27.2150032,105.215166,0,0.0
Yancheng,China,6709629.0,33.6014756,114.0120492,0,0.0
Zunyi,China,6606675.0,27.6912954,106.9155974,0,0.0
Shaoyang,China,6563520.0,26.9443424,110.9631102,0,0.0
Shangrao,China,6491088.0,28.7435852,117.40539,0,0.0
Abidjan,Ivory Coast,6321017.0,5.30966,-4.01266,0,0.0
Xinxiang,China,6251929.0,35.308611,114.051111,0,0.0
Xinyang,China,6234401.0,32.075,114.853333,0,0.0
Wolayita Zone,Ethiopia,6142063.0,6.84312,37.70051,0,0.0
Nashik Division,India,6107187.0,19.98295,73.78942,0,0.0
Huizhou,China,6042852.0,29.9222399,118.0968867,0,0.0
Guiyang,China,5987018.0,25.8728015,112.6287278,0,0.0
Surat,India,5935000.0,21.17801,72.81189,0,0.0
Paschim Medinipur,India,5913457.0,22.3600118,87.4111505,0,0.0
Ankara,Turkey,5803482.0,39.9034367,32.4331003,0,0.0
Qujing,China,5765775.0,25.719931,103.986131,0,0.0
Nanchong,China,5607565.0,31.210219,106.231735,0,0.0
Hooghly,India,5519145.0,22.91,88.39,0,0.0
Tai'an,China,5472217.0,41.3785479,122.4268343,0,0.0
Dazhou,China,5385422.0,31.345115,107.650683,0,0.0
Yongzhou,China,5289824.0,25.781344,111.6979977,0,0.0
Changde,China,5279102.0,29.034552,111.6928724,0,0.0
Jingzhou,China,5231180.0,30.3375612,112.2337264,0,0.0
Jingzhou,China,5231180.0,26.556993,109.570933,0,0.0
Nadia,India,5167600.0,23.4847374,88.5567067,0,0.0
East Godavari,India,5154296.0,17.83333,81.83333,0,0.0
Purba Medinipur,India,5095875.0,22.0648451,87.8377586,0,0.0
Zhangzhou,China,5054328.0,24.2388257,117.4524304,0,0.0
Yueyang,China,5051922.0,29.060703,113.348653,0,0.0
Changsha,China,10047914.0,28.1450774,113.2384362,1,0.01
Yichun,China,5007702.0,47.9433709,129.1847514,0,0.0
Yichun,China,5007702.0,28.3803015,115.0153957,0,0.0
Bozhou,China,4996844.0,33.8490794,115.7730968,0,0.0
Bozhou,China,4996844.0,27.5396316,106.8214413,0,0.0
Kaifeng,China,4824016.0,34.604167,114.497222,0,0.0
Belagavi,India,4779661.0,16.33333,74.75,0,0.0
Yuncheng,China,4774508.0,22.8919909,112.1525567,0,0.0
Yuncheng,China,4774508.0,35.218039,111.053715,0,0.0
Cape Town,South Africa,4772846.0,-33.92584,18.42322,0,0.0
Peshawar,Pakistan,4758762.0,34.008,71.57849,0,0.0
Multan District,Pakistan,4745109.0,30.08333333,71.66666667,0,0.0
Harris,United States,4731145.0,32.736,-84.90899,0,0.0
Dar es Salaam,Tanzania,4715000.0,-6.82349,39.26951,0,0.0
Johannesburg,South Africa,9418183.0,-26.20227,28.04363,1,0.01
Weinan,China,4688744.0,34.5169112,109.4643291,0,0.0
Chenzhou,China,4667134.0,25.7733598,113.0094337,0,0.0
Nagpur Division,India,4653570.0,21.14911,79.10748,0,0.0
Jiujiang,China,4600276.0,31.3524951,117.9600876,0,0.0
Jiujiang,China,4600276.0,29.388607,115.3820227,0,0.0
Lucknow District,India,4589838.0,26.75,81.0,0,0.0
Upper Bavaria,Germany,4588944.0,48.0,11.0,0,0.0
Yibin,China,4588804.0,28.58689,104.718661,0,0.0
Cavite,Philippines,4573884.0,11.21472222,124.82305556,0,0.0
Huai'an,China,4556230.0,40.541641,114.517902,0,0.0
Krishna,India,4517398.0,16.66667,81.0,0,0.0
Kolkata,India,4496694.0,22.54111111,88.33777778,0,0.0
Yangon,Myanmar,4477638.0,16.80528,96.15611,0,0.0
Ji'an,China,4469176.0,27.0937349,114.961355,0,0.0
Ji'an,China,4469176.0,41.258333,126.017778,0,0.0
Zhongshan,China,4418060.0,26.5778551,104.8406954,0,0.0
Nairobi,Kenya,4397073.0,-1.28333,36.81667,0,0.0
Xuchang,China,4379998.0,34.147778,113.714722,0,0.0
Lanzhou,China,4359446.0,36.474436,103.733224,0,0.0
Kano,Nigeria,4348000.0,12.00012,8.51672,0,0.0
Guigang,China,4316262.0,23.3594346,110.0412939,0,0.0
Kabul,Afghanistan,4273156.0,34.52813,69.17233,0,0.0
Xiaogan,China,4270371.0,31.176413,113.922434,0,0.0
Bamako,Mali,4227569.0,12.65,-8.0,0,0.0
Hengshui,China,4212933.0,37.7364305,115.6677229,0,0.0
Anqing,China,4165284.0,30.6592336,116.6302585,0,0.0
Liuzhou,China,4157934.0,25.0009993,109.3414252,0,0.0
Qiqihar,China,4067489.0,47.7363891,124.6567611,0,0.0
Urumqi,China,4054369.0,43.8244074,87.6139038,0,0.0
Chifeng,China,4035967.0,43.2564906,118.9759212,0,0.0
City of Cape Town,South Africa,4005016.0,-33.91667,18.41667,0,0.0
Chuzhou,China,3987054.0,32.3027377,118.3139455,0,0.0
Linfen,China,3976481.0,36.229963,111.381767,0,0.0
Saran,India,3951862.0,25.91667,84.75,0,0.0
West Godavari,India,3936966.0,17.0,81.16667,0,0.0
Zhuzhou,China,3902738.0,27.049812,113.55087,0,0.0
Addis Ababa,Ethiopia,3860000.0,9.02497,38.74689,0,0.0
Zaozhuang,China,3855601.0,34.8108822,117.3178922,0,0.0
Yiyang,China,3851564.0,34.4704334,112.0487021,0,0.0
Yiyang,China,3851564.0,28.438707,112.056694,0,0.0
Yiyang,China,3851564.0,28.469272,117.3820682,0,0.0
Loudi,China,3826996.0,27.6995215,111.9890658,0,0.0
Puyang,China,3772088.0,35.7631348,115.0234071,0,0.0
Puyang,China,3772088.0,29.45679,119.88872,0,0.0
Qiandongnan Miao and Dong Autonomous,China,3758622.0,26.5738,108.59914,0,0.0
Suihua,China,3756167.0,46.6520372,126.9626572,0,0.0
Baiyun,China,3742991.0,26.7383299,106.6756083,0,0.0
eThekwini Metropolitan,South Africa,3702231.0,-29.8667,31.0167,0,0.0
Ibadan,Nigeria,3649000.0,7.37756,3.90591,0,0.0
Wuhu,China,3644420.0,31.1800568,118.2141777,0,0.0
Noakhali,Bangladesh,3625442.0,22.75,91.16667,0,0.0
Fuzhou,China,3614866.0,27.502232,116.415177,0,0.0
Pujiang,China,3590000.0,29.4558211,119.8869538,0,0.0
Baise,China,3571505.0,23.9053605,106.6148824,0,0.0
Baise,China,3571505.0,23.9,106.61667,0,0.0
Jiaozuo,China,3521078.0,35.1375,113.143889,0,0.0
Birbhum,India,3502404.0,24.0,87.58333,0,0.0
Sadr City,Iraq,3500000.0,33.3769233,44.4044638,0,0.0
Vaishali,India,3495021.0,25.75,85.41667,0,0.0
Sitamarhi,India,3423574.0,26.66667,85.5,0,0.0
Hechi,China,3417945.0,24.7169004,107.8857367,0,0.0
Wakiso District,Uganda,3411177.0,0.23763,32.47836,0,0.0
Lüliang,China,3398431.0,37.6855567,111.3178885,0,0.0
Luliang,China,3398431.0,25.0313559,103.7270898,0,0.0
Prakasam,India,3397448.0,15.5,79.5,0,0.0
Jinzhong,China,3379498.0,37.6866796,112.7383414,0,0.0
Rawalpindi District,Pakistan,3363911.0,33.42987,73.23092,0,0.0
Rawalpindi,Pakistan,3357612.0,33.59733,73.0479,0,0.0
Durban,South Africa,3338026.0,-29.8579,31.0292,0,0.0
Qinzhou,China,3302238.0,34.5797531,105.7062921,0,0.0
Qinzhou,China,3302238.0,21.9647835,108.620787,0,0.0
City of Tshwane Metropolitan,South Africa,3275152.0,-25.65985,28.44343,0,0.0
Guang'an,China,3254883.0,30.4593051,106.6286646,0,0.0
Metropolitan City of Milan,Italy,3247623.0,45.45186,9.14586,0,0.0
Putian,China,3210714.0,25.4965882,118.8500963,0,0.0
Zhenjiang,China,3210418.0,24.9032539,113.581466,0,0.0
Shiyan,China,3209004.0,32.45269,110.560812,0,0.0
Mashhad,Iran,3208000.0,36.31559,59.56796,0,0.0
Faisalabad,Pakistan,3203846.0,31.41554,73.08969,0,0.0
Orange County,United States,3186989.0,38.54178,-86.49507,0,0.0
Orange County,United States,3186989.0,36.0613,-79.1206,0,0.0
Orange County,United States,3186989.0,30.12131,-93.8939,0,0.0
Orange County,United States,3186989.0,44.0056,-72.37661,0,0.0
Orange County,United States,3186989.0,38.24624,-78.01349,0,0.0
Changzhi,China,3180884.0,36.1830167,113.0992929,0,0.0
Leshan,China,3160168.0,29.2233495,103.5966083,0,0.0
Ningde,China,3146789.0,27.0143281,119.4385501,0,0.0
Neijiang,China,3140678.0,29.6602202,104.9192806,0,0.0
Haidian,China,3133469.0,40.0241811,116.0577732,0,0.0
Banas Kantha,India,3120506.0,24.25,72.5,0,0.0
Jaipur,India,3073350.0,27.0,76.0,0,0.0
Katihar,India,3071029.0,25.5,87.6,0,0.0
Kanpur,India,3067700.0,26.46523,80.34975,0,0.0
Huainan,China,3033528.0,32.5866826,117.0130019,0,0.0
Kadiogo,Burkina Faso,3032668.0,12.33333,-1.5,0,0.0
Liupanshui,China,3031602.0,26.5963778,104.8279652,0,0.0
Ürümqi,China,3029372.0,43.80096,87.60046,0,0.0
Uttar Dinajpur,India,3007134.0,25.62,88.12,0,0.0
Mysuru,India,3001127.0,12.23,76.42,0,0.0
Guiyang,China,5987018.0,26.6499922,106.6246178,1,0.02
Tianshui,China,2984659.0,34.6538841,105.8003895,0,0.0
Rohtas,India,2959918.0,24.97941,84.02774,0,0.0
Nalanda,India,2877653.0,25.25,85.58333,0,0.0
Haikou,China,2873358.0,20.0462328,110.1956502,0,0.0
Tongliao,China,2873168.0,43.6151762,122.2601035,0,0.0
Pyongyang,North Korea,2863000.0,39.03385,125.75432,0,0.0
Shaoguan,China,2855131.0,24.8309489,113.8155263,0,0.0
Wuzhou,China,2820977.0,23.5715402,111.0139268,0,0.0
Suining,China,2814196.0,26.7382532,110.2232538,0,0.0
Kyiv,Ukraine,2797553.0,50.45466,30.5238,0,0.0
Naogaon,Bangladesh,2784599.0,24.8742508,88.4375191,0,0.0
Quito,Ecuador,2781641.0,-0.22985,-78.52495,0,0.0
Daqing,China,2781562.0,46.3240228,124.5598093,0,0.0
Rome,Italy,2748109.0,41.89193,12.51133,0,0.0
Tai'an,China,5472217.0,36.2002968,117.0809316,1,0.02
Belo Horizonte,Brazil,2721564.0,-19.92083,-43.93778,0,0.0
Bazhong,China,2712894.0,32.040248,107.062301,0,0.0
Salvador,Brazil,2711840.0,-12.97111,-38.51083,0,0.0
Sunamganj,Bangladesh,2695496.0,24.8890554,91.0024827,0,0.0
Abuja,Nigeria,2690000.0,9.05785,7.49508,0,0.0
Maitama,Nigeria,2690000.0,9.0882,7.4934,0,0.0
Nanping,China,2680645.0,27.3856975,118.0753196,0,0.0
Guayaquil,Ecuador,2650288.0,-2.19616,-79.88621,0,0.0
Dakar,Senegal,2646503.0,14.6937,-17.44406,0,0.0
Arsi Zone,Ethiopia,2637000.0,7.5,39.5,0,0.0
Haiphong,Vietnam,2625200.0,20.86481,106.68345,0,0.0
Nord,France,2616909.0,50.33333,3.36197,0,0.0
Lilongwe District,Malawi,2600000.0,-14.01962,33.68407,0,0.0
Jingmen,China,2596927.0,31.0375248,112.1937979,0,0.0
Chittagong,Bangladesh,2581643.0,22.4875,91.96333,0,0.0
Gaibandha,Bangladesh,2562233.0,25.3431557,89.1397857,0,0.0
Kumasi,Ghana,2544530.0,6.68848,-1.62443,0,0.0
Dingxi,China,2524097.0,35.1773165,104.59362,0,0.0
Alexandria,Egypt,5039975.0,31.20176,29.91582,1,0.02
Mayurbhanj,India,2519738.0,21.75,86.5,0,0.0
Havana,Cuba,2492618.0,23.13302,-82.38304,0,0.0
Zigong,China,2489256.0,29.2995746,104.6928392,0,0.0
Luanda,Angola,2487444.0,-8.83682,13.23432,0,0.0
Sanming,China,2486450.0,26.3355765,117.442474,0,0.0
Jimma Zone,Ethiopia,2486155.0,7.66667,37.0,0,0.0
City of Johannesburg Metropolitan,South Africa,4949347.0,-26.17673,27.96353,1,0.02
Lucknow,India,2472011.0,26.83928,80.92313,0,0.0
Cali,Colombia,2471474.0,3.41033,-76.58097,0,0.0
Anshun,China,2470630.0,26.254911,105.9437773,0,0.0
Xining,China,2467965.0,36.824463,101.440811,0,0.0
Ouagadougou,Burkina Faso,2453496.0,12.36566,-1.53388,0,0.0
Ballari,India,2452595.0,15.15,76.55,0,0.0
Huludao,China,2434194.0,40.7515443,120.8404789,0,0.0
Huludao,China,2434194.0,40.74528,120.21972,0,0.0
Baoshan,China,2431211.0,46.5206052,131.4826694,0,0.0
Baoshan,China,2431211.0,46.55861,131.42444,0,0.0
Baoshan,China,2431211.0,25.1147115,99.1591622,0,0.0
Riverside County,United States,2418185.0,33.74368,-115.99386,0,0.0
Mount Simeon,Syria,2413878.0,35.99956,37.08473,0,0.0
Longnan,China,2407272.0,33.5363816,105.3513561,0,0.0
Longnan,China,2407272.0,24.7543154,114.7123705,0,0.0
Nagpur,India,2405665.0,21.14631,79.08491,0,0.0
Pu'er,China,2404954.0,23.2948942,100.8784458,0,0.0
Fortaleza,Brazil,2400000.0,-3.71722,-38.54306,0,0.0
Ambedkar Nagar,India,2397888.0,26.40544,82.69762,0,0.0
Panchmahal,India,2390776.0,22.6978098,73.5980682,0,0.0
Tieling,China,2388294.0,42.6345121,124.2858328,0,0.0
Tieling,China,2388294.0,42.62583,124.32361,0,0.0
Yunfu,China,2383350.0,22.8546663,111.8078586,0,0.0
Luohe,China,2367490.0,33.5826865,114.0107357,0,0.0
Algiers,Algeria,2364230.0,36.73225,3.08746,0,0.0
Surguja,India,2359886.0,22.89624,83.09631,0,0.0
Vizianagaram District,India,2344474.0,18.41102,83.37677,0,0.0
Kurigram,Bangladesh,2329160.0,25.8082722,89.0091503,0,0.0
Netrokona,Bangladesh,2324853.0,24.8720481,90.5229381,0,0.0
Ziyang,China,2308631.0,28.6747471,112.3710144,0,0.0
Ziyang,China,2308631.0,32.44794,108.435624,0,0.0
Ziyang,China,2308631.0,30.0928618,105.1336656,0,0.0
Guangyuan,China,2305657.0,32.2685578,105.8395358,0,0.0
Manaus,Brazil,2303732.0,-3.04361,-60.01282,0,0.0
Mudanjiang,China,2290208.0,44.635006,130.013384,0,0.0
Quzhou,China,2276184.0,36.7698986,114.9585243,0,0.0
Colombo District,Sri Lanka,2273260.0,6.8664,80.0166,0,0.0
Quetta District,Pakistan,2272290.0,30.17458,66.76203,0,0.0
King,United States,2269675.0,33.61648,-100.25585,0,0.0
Lincang,China,2257991.0,23.88848,100.0879344,0,0.0
Caracas,Venezuela,2245744.0,10.5,-66.93333333,0,0.0
Hulunbuir,China,2242875.0,49.2125235,119.7370167,0,0.0
Supaul,India,2229076.0,26.25,86.8,0,0.0
Maricopa County,United States,4420568.0,33.34883,-112.49123,1,0.02
Brasília,Brazil,2207718.0,-15.77972,-47.92972,0,0.0
Delhi,India,11034555.0,28.65195,77.23149,4,0.04
Lusaka,Zambia,2204059.0,-15.40669,28.28713,0,0.0
Santo Domingo,Dominican Republic,2201941.0,18.47186,-69.89232,0,0.0
Jincheng,China,2194545.0,35.4913132,112.8454497,0,0.0
Dongying,China,2193518.0,37.4334738,118.6689349,0,0.0
Yubei,China,2191493.0,29.8479405,106.3877387,0,0.0
Dandong,China,2188436.0,40.5791477,124.4407146,0,0.0
Lomé,Togo,2188376.0,6.12874,1.22154,0,0.0
San Bernardino County,United States,2181654.0,34.84143,-116.17846,0,0.0
Qingyang,China,2179716.0,30.5825866,117.7431219,0,0.0
Qingyang,China,2179716.0,36.182368,107.6216357,0,0.0
Jiamusi,China,2156505.0,47.02157,132.044137,0,0.0
Ordos,China,2153638.0,39.4602947,108.8134284,0,0.0
Ordos,China,2153638.0,39.46142,108.80946,0,0.0
Brazzaville,Congo,2145783.0,-4.26613,15.28318,0,0.0
Moulvibazar,Bangladesh,2123447.0,24.4861771,91.2874241,0,0.0
Port Harcourt,Nigeria,2120000.0,4.75,7.0,0,0.0
Mogadishu,Somalia,2120000.0,2.03711,45.34375,0,0.0
Pretoria,South Africa,2112693.0,-25.74486,28.18783,0,0.0
Mbuji-Mayi,Democratic Republic of the Congo,2101332.0,-6.13603,23.58979,0,0.0
Sundargarh,India,2093437.0,22.25,84.5,0,0.0
Nilphamari,Bangladesh,2092568.0,26.0226425,88.6341271,0,0.0
Kutch,India,2092371.0,23.915,70.367,0,0.0
Dakshina Kannada,India,2089649.0,12.84,75.29,0,0.0
Chongzuo,China,2088692.0,22.4910206,107.328244,0,0.0
Laibin,China,2074611.0,23.7532648,109.2169807,0,0.0
Vadodara,India,2065771.0,22.29941,73.20812,0,0.0
Al Mawşil al Jadīdah,Iraq,2065597.0,36.33271,43.10555,0,0.0
South Gondar Zone,Ethiopia,2051738.0,11.8385,38.09954,0,0.0
Suizhou,China,2047923.0,31.920921,113.465844,0,0.0
Perth,Australia,2043762.0,-31.95224,115.8614,0,0.0
Rajkot,India,2043000.0,22.33333,70.83333,0,0.0
Shangluo,China,2041231.0,33.8691156,109.9378112,0,0.0
Sanmenxia,China,2034872.0,34.4228647,111.0489969,0,0.0
Firozpur District,India,2029074.0,30.89,74.56,0,0.0
Gujranwala,Pakistan,2027001.0,32.15567,74.18705,0,0.0
Al Başrah al Qadīmah,Iraq,2015483.0,30.50316,47.81507,0,0.0
Hezhou,China,2007858.0,24.3705146,111.3590955,0,0.0
Jhenaidah,Bangladesh,2005849.0,23.4952127,88.7069493,0,0.0
La Paz,Bolivia,2004652.0,-16.5,-68.15,0,0.0
Aleppo,Syria,2003671.0,36.20124,37.16117,0,0.0
Indore,India,1994397.0,22.66667,75.75,0,0.0
Ujjain,India,1986864.0,23.41667,75.5,0,0.0
Xianyang,China,3959842.0,34.3323227,108.7128495,1,0.03
Tashkent,Uzbekistan,1978028.0,41.26465,69.21627,0,0.0
Khartoum,Sudan,1974647.0,15.55177,32.53241,0,0.0
Chandauli District,India,1952756.0,25.26134,83.26408,0,0.0
Davanagere,India,1945497.0,14.43,75.9,0,0.0
Palamu,India,1939869.0,23.91667,84.08333,0,0.0
Sanaa,Yemen,1937451.0,15.35472,44.20667,0,0.0
Bhola,Bangladesh,1932518.0,22.3245248,90.1056847,0,0.0
Sonitpur,India,1924110.0,26.76748,92.96425,0,0.0
Swabia,Germany,1917979.0,48.33333,10.5,0,0.0
Jieyang,China,1899394.0,23.553156,116.3680354,0,0.0
Rongcheng,China,1899394.0,23.5278913,116.3623373,0,0.0
Thane,India,1886941.0,19.33333,73.25,0,0.0
Bhopal,India,1883381.0,23.25469,77.40289,0,0.0
Weifang,China,9386705.0,36.7071591,119.1557441,4,0.04
Multan,Pakistan,1871843.0,30.19679,71.47824,0,0.0
Camayenne,Guinea,1871242.0,9.535,-13.68778,0,0.0
Dezhou,China,5611194.0,37.4363704,116.3534091,2,0.04
Kanniyakumari,India,1870374.0,8.32,77.34,0,0.0
Kakamega,Kenya,1867579.0,0.28422,34.75229,0,0.0
Sonbhadra,India,1862559.0,24.40212,83.05352,0,0.0
Fushun,China,1861372.0,41.8011658,124.7459491,0,0.0
Fushun,China,1861372.0,29.1223198,105.0434604,0,0.0
Yiwu,China,1859390.0,43.6273426,94.8774974,0,0.0
Beihai,China,1853227.0,21.6740808,109.3729721,0,0.0
Chengqu,China,1850000.0,40.0740529,113.2911819,0,0.0
Kaduna,Nigeria,1850000.0,10.52641,7.43879,0,0.0
Omdurman,Sudan,1849659.0,15.64453,32.47773,0,0.0
Davao City,Philippines,1848947.0,7.2541989,125.1214168,0,0.0
Pingliang,China,1848607.0,35.22678,106.495648,0,0.0
Chapai Nawabganj,Bangladesh,1835528.0,24.5998869,88.2850466,0,0.0
Curitiba,Brazil,1830795.0,-25.42778,-49.27306,0,0.0
Mandi Bahauddin District,Pakistan,1829486.0,32.58333333,73.5,0,0.0
Jalore,India,1828730.0,25.08,72.29,0,0.0
Siping,China,1814733.0,43.1669821,124.364739,0,0.0
Kampala,Uganda,1797722.0,0.31628,32.58219,0,0.0
Kampala District,Uganda,1797722.0,0.33508,32.58313,0,0.0
Kanpur Dehat,India,1796184.0,26.41506,79.98957,0,0.0
Mosul,Iraq,1792000.0,36.335,43.11889,0,0.0
Lubumbashi,Democratic Republic of the Congo,1786397.0,-11.66089,27.47938,0,0.0
Accra,Ghana,1782150.0,5.55602,-0.1969,0,0.0
Benin City,Nigeria,1780000.0,6.33815,5.62575,0,0.0
Luoyang,China,7056699.0,34.6196539,112.4477046,3,0.04
Bayan Nur,China,1760000.0,40.74143,107.38599,0,0.0
Ehlanzeni,South Africa,1754931.0,-25.351,31.361,0,0.0
Shimoga,India,1752753.0,14.05,75.16,0,0.0
Chaozhou,China,1750945.0,23.656593,116.6204223,0,0.0
Xiangqiao,China,1750945.0,23.6775227,116.6240731,0,0.0
Hyderabad,India,6993262.0,17.38405,78.45636,3,0.04
Minsk,Belarus,1742124.0,53.9,27.56667,0,0.0
Cachar,India,1736617.0,24.78213,92.85771,0,0.0
Hyderabad,Pakistan,1732693.0,25.39242,68.37366,0,0.0
Patuakhali,Bangladesh,1727254.0,22.1870917,89.7164706,0,0.0
West Tripura,India,1725739.0,23.91667,91.5,0,0.0
Sant Kabir Nagar,India,1715183.0,26.79016,83.03481,0,0.0
Dehradun,India,1696694.0,30.33,78.06,0,0.0
Valencia,Venezuela,1696662.0,10.16202,-68.00765,0,0.0
Soweto,South Africa,1695047.0,-26.26781,27.85849,0,0.0
Barpeta,India,1693622.0,26.47104,91.0308,0,0.0
Patna,India,1684222.0,25.41667,85.16667,0,0.0
Dakshin Dinajpur,India,1676276.0,25.22,88.76,0,0.0
Gironde,France,1674980.0,44.69306,-0.414,0,0.0
Provincia Murillo,Bolivia,1669807.0,-16.33333,-68.0,0,0.0
Conakry,Guinea,1667864.0,9.53795,-13.67729,0,0.0
Baoji,China,3321853.0,34.3609713,107.2322378,1,0.03
Yongqiao,China,1658682.0,33.6890137,116.8154091,0,0.0
Linquan,China,1658442.0,32.8652245,114.8730885,0,0.0
Bojanala Platinum,South Africa,1657148.0,-25.42612,27.2243,0,0.0
Rabat,Morocco,1655753.0,34.01325,-6.83255,0,0.0
Recife,Brazil,1653461.0,-8.05389,-34.88111,0,0.0
Ilala,Tanzania,1649912.0,-6.848738,39.284713,0,0.0
San Diego County,United States,3298634.0,33.0282,-116.77021,1,0.03
Udham Singh Nagar,India,1648902.0,29.02746,79.52347,0,0.0
Bengbu,China,3296408.0,32.9176422,117.3825673,1,0.03
Fuxin,China,1647280.0,42.330278,122.015278,0,0.0
Lu'an,China,1644344.0,31.7383487,116.5142252,0,0.0
Lu’an,China,1644344.0,31.73561,116.51688,0,0.0
Xixiangtang,China,1643819.0,22.9008465,108.1233208,0,0.0
Guilin,China,4931137.0,25.2779894,110.2910622,2,0.04
Guilin,China,4931137.0,25.28333,110.28333,2,0.04
Novosibirsk,Russia,1637266.0,55.0415,82.9346,0,0.0
Bhiwani,India,1634445.0,28.75,76.16667,0,0.0
Kaimur,India,1626384.0,25.05077,83.58261,0,0.0
Munshiganj,Bangladesh,1625416.0,23.5261523,90.1159091,0,0.0
Oshodi-Isolo,Nigeria,1621789.0,6.5365483,3.2755143,0,0.0
Jingdezhen,China,1618979.0,29.3582395,117.2735595,0,0.0
Ludhiana,India,1618879.0,30.91204,75.85379,0,0.0
Bagerhat,Bangladesh,1613076.0,22.3488059,89.0747025,0,0.0
Arbil,Iraq,1612700.0,36.1907,44.00947,0,0.0
Kurunegala District,Sri Lanka,1610299.0,7.75,80.25,0,0.0
Liaoyang,China,1604580.0,41.2742898,123.1695757,0,0.0
Guandu,China,1602279.0,25.0382533,102.8534629,0,0.0
Kaushambi,India,1599596.0,25.53074,81.37729,0,0.0
Haveri,India,1597668.0,14.73732,75.41062,0,0.0
Shuozhou,China,1593444.0,39.592737,112.541339,0,0.0
Kent,United Kingdom,1593191.0,51.16667,0.66667,0,0.0
Karaj,Iran,1592492.0,35.83266,50.99155,0,0.0
Kalahandi,India,1576869.0,19.75,83.0,0,0.0
Betul,India,1575362.0,21.83333,77.83333,0,0.0
Tengzhou,China,1574648.0,35.1139509,117.1600052,0,0.0
Damascus,Syria,1569394.0,33.5102,36.29128,0,0.0
Hebi,China,1565973.0,35.7494986,114.2912899,0,0.0
Istanbul,Turkey,15655924.0,41.0053702,28.6825162,9,0.06
Quetta,Pakistan,1565546.0,30.18414,67.00141,0,0.0
Wanzhou,China,1564449.0,30.70576,108.40202,0,0.0
Manikganj,Bangladesh,1558025.0,23.8317408,89.6409789,0,0.0
Jamshedpur,India,1558000.0,22.80278,86.18545,0,0.0
Maracaibo,Venezuela,1551539.0,10.66663,-71.61245,0,0.0
Baicheng,China,1551378.0,45.4086001,123.1327161,0,0.0
Baicheng,China,1551378.0,41.7939895,81.848927,0,0.0
Isfahan,Iran,1547164.0,32.65246,51.67462,0,0.0
Tangshan,China,7717983.0,39.6295951,118.1738712,4,0.05
Harare,Zimbabwe,1542813.0,-17.82772,31.05337,0,0.0
Monrovia,Liberia,1542549.0,6.30054,-10.7969,0,0.0
Bayannur,China,1538715.0,41.569576,107.494851,0,0.0
Qiaocheng,China,1537231.0,33.742488,115.482354,0,0.0
Shangqiu,China,1536392.0,34.4168215,115.6507447,0,0.0
Kamrup,India,1517542.0,26.22322,91.65344,0,0.0
Zhangjiajie,China,1517027.0,29.373828,110.530142,0,0.0
Ulaanbaatar,Mongolia,1515593.0,47.8915317,106.7367222,0,0.0
Baiyin,China,1512110.0,36.536461,104.784953,0,0.0
Province du Houet,Burkina Faso,1509377.0,11.33333,-4.25,0,0.0
Cần Thơ,Vietnam,1507187.0,10.11667,105.5,0,0.0
Dianbai,China,1503737.0,21.6855679,111.1614359,0,0.0
Goiânia,Brazil,1503256.0,-16.67861,-49.25389,0,0.0
Jixi,China,1502060.0,30.1459321,118.313112,0,0.0
Jixi,China,1502060.0,45.65802,132.461493,0,0.0
Belém,Brazil,1499641.0,-9.54424,-36.50196,0,0.0
Belém,Brazil,1499641.0,-1.45583,-48.50444,0,0.0
İzmir,Turkey,4493242.0,38.4178287,26.914903,2,0.04
Niamey,Niger,1496260.0,13.51361111,2.10888889,0,0.0
Palm Beach County,United States,1492191.0,26.64757,-80.43651,0,0.0
Dongchangfu,China,1488905.0,36.4128622,116.0007625,0,0.0
Porto Alegre,Brazil,1488252.0,-30.03283,-51.23019,0,0.0
Nashik,India,1486053.0,19.99727,73.79096,0,0.0
Rizhao,China,2968365.0,35.4178833,119.5213994,1,0.03
Onitsha,Nigeria,1483000.0,6.14978,6.78569,0,0.0
Loire-Atlantique,France,1473156.0,47.32863,-1.65764,0,0.0
Pas-de-Calais,France,1460184.0,50.4828,2.28664,0,0.0
OR Tambo,South Africa,1457384.0,-31.4674,29.05247,0,0.0
Seine-et-Marne,France,1452399.0,48.64599,2.95905,0,0.0
Nkangala,South Africa,1445624.0,-25.71222,29.42431,0,0.0
Tirunelveli,India,1435844.0,8.72742,77.6838,0,0.0
San Antonio,United States,1434625.0,18.45166667,-66.94972222,0,0.0
Ya'an,China,1434603.0,29.8931184,102.7416508,0,0.0
Agra,India,1430055.0,27.18333,78.01667,0,0.0
Liuyang,China,1429384.0,28.2178951,113.7001702,0,0.0
Lalmonirhat,Bangladesh,1428406.0,26.1244239,88.910609,0,0.0
Tabriz,Iran,1424641.0,38.08,46.2919,0,0.0
Kharkiv,Ukraine,1421125.0,49.98081,36.25272,0,0.0
Bastar,India,1413199.0,19.26794,81.73828,0,0.0
Suining,China,2814196.0,33.8963659,117.945284,1,0.04
Faridabad,India,1404653.0,28.41124,77.31316,0,0.0
Huiyang,China,1404137.0,22.8937884,114.4604579,0,0.0
Nassau County,United States,1395774.0,30.61058,-81.77142,0,0.0
Vhembe,South Africa,1393949.0,-22.75467,30.1936,0,0.0
Guji Zone,Ethiopia,1389800.0,5.588,39.067,0,0.0
Kayseri,Turkey,1389680.0,38.7235532,35.3053732,0,0.0
Adelaide,Australia,1387290.0,-34.92866,138.59863,0,0.0
Wuzhong,China,1382713.0,37.4922984,106.5151923,0,0.0
Guankou,China,1380000.0,28.15861,113.62709,0,0.0
Huế,Vietnam,1380000.0,16.4619,107.59546,0,0.0
Langfang,China,5464087.0,39.5302055,116.6926134,3,0.05
Kisangani,Democratic Republic of the Congo,1366000.0,0.51528,25.19099,0,0.0
Najafgarh,India,1365000.0,28.60922,76.97982,0,0.0
Lianjiang,China,1363470.0,26.2519917,119.2424868,0,0.0
Lianjiang,China,1363470.0,21.6567913,110.148109,0,0.0
Jiangjin,China,1359611.0,28.987598,105.8877233,0,0.0
Bannu,Pakistan,1357890.0,32.98527,70.60403,0,0.0
Baotou,China,2709378.0,40.6174777,109.944912,1,0.04
Milan,Italy,1354196.0,45.46427,9.18951,0,0.0
Zhenxiong,China,1349795.0,27.5831296,104.8371054,0,0.0
Temeke,Tanzania,1346674.0,-6.904184,39.235282,0,0.0
Santiago de los Caballeros,Dominican Republic,1343423.0,19.4517,-70.69703,0,0.0
Chizhou,China,1342764.0,30.6671088,117.4859885,0,0.0
Abobo,Ivory Coast,1340083.0,5.41613,-4.0159,0,0.0
Xintai,China,1338254.0,35.9094557,117.7620286,0,0.0
Douala,Cameroon,1338082.0,4.04827,9.70428,0,0.0
Jimo,China,1336077.0,36.4083982,120.5348775,0,0.0
Capricorn,South Africa,1330436.0,-23.48163,29.1835,0,0.0
Shijiazhuang,China,10640458.0,38.0429742,114.5088385,7,0.07
Kazan,Russia,1329825.0,55.78874,49.12214,0,0.0
Navsari,India,1329672.0,20.95,72.92,0,0.0
Gaozhou,China,1328657.0,22.0461477,110.9644447,0,0.0
Barranquilla,Colombia,1326588.0,10.96854,-74.78132,0,0.0
Basrah,Iraq,1326564.0,30.50852,47.7804,0,0.0
Benxi,China,1326018.0,41.176944,124.157425,0,0.0
Gorakhpur,India,1324570.0,29.44768,75.67206,0,0.0
Leizhou,China,1321091.0,20.7610912,110.027989,0,0.0
Yangquan,China,1318505.0,38.0935972,113.5265601,0,0.0
Fangshan,China,1312778.0,37.9004988,111.334256,0,0.0
Tongling,China,1311726.0,30.9057603,117.6141351,0,0.0
Maonan,China,1307802.0,21.6442556,110.9139827,0,0.0
Meerut,India,1305429.0,28.91667,77.68333,0,0.0
Montevideo,Uruguay,1302954.0,-34.90328,-56.18816,0,0.0
Navi Mumbai,India,2600000.0,19.03681,73.01582,1,0.04
Mfoundi,Cameroon,1299369.0,3.8667,11.5167,0,0.0
Yaoundé,Cameroon,1299369.0,3.86667,11.51667,0,0.0
Gopalganj,Bangladesh,1295057.0,23.1066012,89.5780271,0,0.0
Huazhou,China,1291668.0,21.8302699,110.5300134,0,0.0
Heihe,China,1286401.0,49.249879,127.11731,0,0.0
Kenitra Province,Morocco,1284247.0,34.58333,-6.33333,0,0.0
Cacuaco,Angola,1279488.0,-8.8296,13.2973,0,0.0
Dakar Department,Senegal,1278469.0,14.71403,-17.45534,0,0.0
Kandy District,Sri Lanka,1277647.0,7.3044,80.7073,0,0.0
Da Nang,Vietnam,1276000.0,16.06778,108.22083,0,0.0
Tangier,Morocco,1275428.0,35.76727,-5.79975,0,0.0
Angul District,India,1273821.0,20.84903,85.06079,0,0.0
Budta,Philippines,1273715.0,7.20417,124.43972,0,0.0
Budta,Philippines,1273715.0,7.20416667,124.43972222,0,0.0
Illubabor Zone,Ethiopia,1271609.0,8.27526,35.75596,0,0.0
Centro,Uruguay,1270737.0,-34.90361111,-56.18833333,0,0.0
Reducto,Uruguay,1270737.0,-34.87831944,-56.18957778,0,0.0
Xiantao,China,1268715.0,30.364029,113.4486702,0,0.0
Jabalpur,India,1267564.0,23.16,79.95,0,0.0
Ningxiang,China,1263332.0,28.1404226,112.3652444,0,0.0
Nelson Mandela Bay Metropolitan,South Africa,1263051.0,-33.80399,25.49213,0,0.0
Kalyan,India,1262255.0,19.2437,73.13554,0,0.0
Seine-Maritime,France,1260205.0,49.67278,1.12519,0,0.0
Nizhniy Novgorod,Russia,1259013.0,56.32867,44.00205,0,0.0
Tbilisi,Georgia,1258526.0,41.69411,44.83368,0,0.0
Yongcheng,China,1256409.0,33.9311614,116.4440806,0,0.0
Kamrup Metropolitan,India,1253938.0,26.05375,92.00763,0,0.0
Blantyre District,Malawi,1250000.0,-15.64732,34.93956,0,0.0
Shiraz,Iran,1249942.0,29.61031,52.53113,0,0.0
Dombivli,India,1247327.0,19.21667,73.08333,0,0.0
SuQian,China,4986192.0,33.9644701,118.2696994,3,0.06
Port-au-Prince,Haiti,1234742.0,18.54349,-72.33881,0,0.0
Huangshi,China,2469079.0,30.2024971,115.0334144,1,0.04
Chuadanga,Bangladesh,1234066.0,23.6035273,88.487324,0,0.0
Chaonan,China,1231638.0,23.2423708,116.434165,0,0.0
Hadiya Zone,Ethiopia,1231196.0,7.5,37.75,0,0.0
Mandalay,Myanmar,1225546.0,21.97473,96.08359,0,0.0
Virar,India,1222390.0,19.45591,72.81136,0,0.0
Nabarangpur,India,1220946.0,19.2333,82.55,0,0.0
Nowrangapur,India,1220946.0,19.23114,82.54826,0,0.0
Karbala,Iraq,1218732.0,32.61603,44.02488,0,0.0
Gir Somnath,India,1217477.0,20.91287,70.3671,0,0.0
Panzhihua,China,1212203.0,26.5860102,101.7179276,0,0.0
Beiliu,China,1211637.0,22.4427933,110.5314264,0,0.0
Boluo,China,1210878.0,23.3366924,114.3214778,0,0.0
Shuangyashan,China,1208803.0,46.522721,132.645516,0,0.0
Mombasa,Kenya,1208333.0,-4.05466,39.66359,0,0.0
Jilin,China,3623713.0,43.8349669,126.5438702,2,0.06
Kaizhou,China,1203306.0,31.254717,107.7578916,0,0.0
Bengaluru Urban,India,9621551.0,13.0,77.58333,7,0.07
Xinyu,China,1202499.0,27.853572,114.8867147,0,0.0
Ghaziabad,India,1199191.0,28.66535,77.43915,0,0.0
Varanasi,India,1198491.0,25.31668,83.01041,0,0.0
Pirojpur,Bangladesh,1198195.0,22.5093791,89.3643422,0,0.0
Maiduguri,Nigeria,1197497.0,11.84692,13.15712,0,0.0
Xinhua,China,1196538.0,33.7385253,113.2904271,0,0.0
Xinhua,China,1196538.0,27.8376355,111.2747406,0,0.0
Dhanbad,India,1196214.0,23.80199,86.44324,0,0.0
Pingdu,China,1191348.0,36.7534005,119.9648885,0,0.0
Rajbari,Bangladesh,1189818.0,23.73843,89.25547,0,0.0
Poyang,China,1184097.0,29.2433823,116.8206876,0,0.0
Funan,China,1183602.0,32.6567523,115.2901735,0,0.0
Distrito de Panamá,Panama,1183333.0,9.30612,-79.45246,0,0.0
Lower Bavaria,Germany,1181472.0,48.75,12.83333,0,0.0
Srinagar,India,1180570.0,34.08565,74.80555,0,0.0
Panchagarh,Bangladesh,1179843.0,26.3209446,88.5471139,0,0.0
Nanchang,China,2357839.0,28.6472124,116.0348483,1,0.04
Chelyabinsk,Russia,1176770.0,55.15402,61.42915,0,0.0
Tripoli,Libya,1176000.0,32.88743,13.18733,0,0.0
Aurangabad,India,1175116.0,19.88467,75.33986,0,0.0
Xinzheng,China,1172237.0,34.3971133,113.7336778,0,0.0
Guoyang,China,1170719.0,33.5632853,115.891634,0,0.0
Sekhukhune,South Africa,1169762.0,-24.82806,29.83803,0,0.0
Bandar Lampung,Indonesia,1166761.0,-5.42917,105.26111,0,0.0
Zoucheng,China,1166559.0,35.403211,117.0017252,0,0.0
Yingkou,China,2328582.0,40.6747155,122.2357736,1,0.04
Shouguang,China,1163364.0,36.8762356,118.7322549,0,0.0
Aba,Nigeria,1160000.0,5.10658,7.36667,0,0.0
Umerkot,Pakistan,1159831.0,25.37,69.73,0,0.0
Mopani,South Africa,1159185.0,-23.76661,30.836,0,0.0
Distrito Central,Honduras,1157509.0,14.14975,-87.24806,0,0.0
Bas-Rhin,France,1156963.0,48.65693,7.56346,0,0.0
Kigali,Rwanda,1156663.0,-1.94995,30.05885,0,0.0
Aden,Yemen,1154410.0,12.77944,45.03667,0,0.0
Yingtan,China,1154223.0,28.2378405,117.1143221,0,0.0
Samara,Russia,1154223.0,53.20007,50.15,0,0.0
Wuqing,China,1153235.0,39.4123853,116.7324226,0,0.0
Taikang,China,1152685.0,34.107222,114.808056,0,0.0
Deyang,China,3456161.0,31.1244028,104.39013,2,0.06
Huangpi,China,1151644.0,31.0567528,114.3820173,0,0.0
Hai Bà Trưng,Vietnam,8053663.0,21.0067597,105.8412663,6,0.07
Mangochi District,Malawi,1148611.0,-14.39296,35.34658,0,0.0
Ufa,Russia,1144809.0,54.74306,55.96779,0,0.0
Wuhua,China,1143085.0,23.7927287,115.634192,0,0.0
Guyuan,China,1142142.0,41.6681741,115.6821748,0,0.0
Guyuan,China,1142142.0,35.93495,106.232668,0,0.0
Fengxian,China,1140872.0,34.6965125,116.6529821,0,0.0
Fengxian,China,1140872.0,33.9140602,106.523915,0,0.0
Leiyang,China,1140675.0,26.4255243,112.8545783,0,0.0
Gert Sibande,South Africa,1135409.0,-26.671,29.92953,0,0.0
Maputo,Mozambique,1133200.0,-25.96553,32.58322,0,0.0
Amritsar,India,1132383.0,31.67,74.84,0,0.0
Zhangye,China,1131016.0,39.121833,99.924947,0,0.0
Jehanabad,India,1125313.0,25.20701,84.99573,0,0.0
Qingxiu,China,1124334.0,22.8093017,108.6559132,0,0.0
Malingao,Philippines,1121974.0,7.16083333,124.475,0,0.0
Kadayangan,Philippines,1121974.0,7.1260269,124.4758199,0,0.0
Malingao,Philippines,1121974.0,7.16083,124.475,0,0.0
Layyah District,Pakistan,1120951.0,30.968,70.943,0,0.0
Touba,Senegal,1120824.0,14.85,-15.88333,0,0.0
Jianli,China,1120822.0,29.8423749,112.8992629,0,0.0
North East Delhi,India,2241624.0,28.6869,77.30195,1,0.04
Jianyang,China,1117265.0,27.4149985,117.4200494,0,0.0
Jianyang,China,1117265.0,30.3915544,104.5532107,0,0.0
Guwahati,India,1116267.0,26.1844,91.7458,0,0.0
Alpes-Maritimes,France,1114579.0,43.91307,7.20436,0,0.0
Huaibei,China,1113321.0,33.9566098,116.7928916,0,0.0
Renshou,China,1110017.0,29.9811089,104.2204271,0,0.0
Tacheng,China,1108747.0,46.7907169,83.2079658,0,0.0
Tacheng,China,1108747.0,46.75,82.95,0,0.0
Var,France,1108364.0,43.4586,6.29145,0,0.0
Mwanza,Tanzania,1104521.0,-2.51667,32.9,0,0.0
Lanling,China,1104391.0,34.8586131,118.0652879,0,0.0
Biên Hòa,Vietnam,1104000.0,10.94469,106.82432,0,0.0
Pingcheng,China,1101942.0,40.0919817,113.2951122,0,0.0
Mengcheng,China,1101640.0,33.209285,116.2195286,0,0.0
Omsk,Russia,1101367.0,54.99244,73.36859,0,0.0
Mudan,China,1098707.0,35.2510986,115.4107298,0,0.0
Upper Palatinate,Germany,1098378.0,49.5,12.0,0,0.0
Dingzhou,China,1095986.0,38.51306,114.99556,0,0.0
Dingzhou,China,1095986.0,38.5112175,114.9970044,0,0.0
Krasnoyarsk,Russia,1092851.0,56.01839,92.86717,0,0.0
N'Djamena,Chad,1092066.0,12.11,15.05,0,0.0
Ilorin,Nigeria,1080000.0,8.49664,4.54214,0,0.0
Ezhou,China,1079353.0,30.3925379,114.8898988,0,0.0
Tanghe,China,1078632.0,32.618657,112.86562,0,0.0
Zhucheng,China,1078178.0,35.9957253,119.4041185,0,0.0
Howrah,India,1077075.0,22.57688,88.31857,0,0.0
Zhangqiu,China,1075784.0,36.6811534,117.5201284,0,0.0
Provincia de Santa Cruz de Tenerife,Spain,1074409.0,28.16667,-17.33333,0,0.0
Panzhou,China,1074073.0,25.8678,104.6031,0,0.0
Ranchi,India,1073440.0,23.34316,85.3094,0,0.0
Gadchiroli,India,1072942.0,19.8,80.2,0,0.0
Casablanca,Morocco,3215935.0,33.5884,-7.55785,2,0.06
Gwalior,India,1069276.0,26.22983,78.17337,0,0.0
Zhongwei,China,1067336.0,36.985074,105.496587,0,0.0
Yuhong,China,1066062.0,41.9124496,123.2508051,0,0.0
Gadag,India,1064570.0,15.49835,75.65187,0,0.0
Visakhapatnam,India,1063178.0,17.68009,83.20161,0,0.0
Upper Franconia,Germany,1062398.0,49.83333,11.33333,0,0.0
Orange County,United States,3186989.0,41.40214,-74.30557,2,0.06
Barquisimeto,Venezuela,1059092.0,10.0647,-69.35703,0,0.0
Galle District,Sri Lanka,1058771.0,6.25,80.25,0,0.0
Dancheng,China,1057093.0,33.6406649,115.1943501,0,0.0
Jodhpur,India,1056191.0,26.75,72.75,0,0.0
Jiuquan,China,1055706.0,40.2773513,96.4560478,0,0.0
Chandigarh,India,1055450.0,30.73629,76.7884,0,0.0
Moselle,France,1050721.0,49.04177,6.58355,0,0.0
Port Elizabeth,South Africa,1050078.0,-33.96109,25.61494,0,0.0
Vijayawada,India,1048240.0,16.50745,80.6466,0,0.0
Fangchenggang,China,1046068.0,21.8615,108.0271898,0,0.0
Pima County,United States,1043433.0,32.09738,-111.78995,0,0.0
Voronezh,Russia,1041722.0,51.67204,39.1843,0,0.0
Gushi,China,1041399.0,32.1711564,115.6488813,0,0.0
Huilai,China,1040779.0,23.0325965,116.225746,0,0.0
Jos,Nigeria,1040000.0,9.92849,8.89212,0,0.0
Sokoto,Nigeria,1040000.0,13.06269,5.24322,0,0.0
Jimei,China,1036987.0,24.6453934,117.959839,0,0.0
Magura,Bangladesh,1033115.0,23.4655774,89.115473,0,0.0
Matola,Mozambique,1032197.0,-25.96222,32.45889,0,0.0
Pointe-Noire,Congo,1032000.0,-4.77609,11.86352,0,0.0
Enugu,Nigeria,1029400.0,6.44132,7.49883,0,0.0
Perm,Russia,1027518.0,58.01046,56.25017,0,0.0
Raipur,India,1027264.0,21.25621,81.69022,0,0.0
Haigang,China,1024876.0,40.0689463,119.576706,0,0.0
Ratnapura District,Sri Lanka,1019512.0,6.5831,80.5833,0,0.0
Zamboanga,Philippines,1018849.0,7.1612491,121.8384294,0,0.0
Huidong,China,1018076.0,23.1315213,115.0337206,0,0.0
Volgograd,Russia,1012219.0,48.7,44.48333333,0,0.0
Xinshi,China,1011440.0,43.9303857,87.5222953,0,0.0
Odesa,Ukraine,1010537.0,46.47747,30.73262,0,0.0
Barguna,Bangladesh,1010531.0,22.1716787,89.7974024,0,0.0
Longhui,China,1009778.0,27.317715,110.989693,0,0.0
Shangcai,China,1005745.0,33.306104,114.423802,0,0.0
Xingyi,China,1004132.0,25.0947613,104.8935472,0,0.0
Ganyu,China,1003844.0,34.8424744,119.1676605,0,0.0
Anxi,China,1003599.0,25.133972,117.6005045,0,0.0
Kota,India,1001694.0,25.17512,75.84412,0,0.0
Zhu Cheng,China,1000000.0,35.99502,119.40259,0,0.0
Medellín,Colombia,1999979.0,6.25184,-75.56359,1,0.05
Solapur,India,997281.0,17.75,75.5,0,0.0
Khuzdār District,Pakistan,997214.0,27.4868,66.58703,0,0.0
Liaoyuan,China,996903.0,42.8863846,125.1374905,0,0.0
Maceió,Brazil,994952.0,-9.66583,-35.73528,0,0.0
Chitrakoot,India,991730.0,25.20511,81.08962,0,0.0
Taixing,China,990200.0,32.1684583,120.0165362,0,0.0
Lilongwe,Malawi,989318.0,-13.96692,33.78725,0,0.0
Minhou,China,988200.0,26.1986005,118.81911,0,0.0
Panlong,China,987955.0,25.266802,102.8273572,0,0.0
Provincia de Zaragoza,Spain,983539.0,41.58333,-1.0,0,0.0
Kinondoni,Tanzania,982328.0,-6.784231,39.265676,0,0.0
Zaria,Nigeria,980000.0,11.11128,7.7227,0,0.0
Pingdingshan,China,979130.0,33.7419956,113.3002154,0,0.0
Ciudad Guayana,Venezuela,978202.0,8.35122,-62.64102,0,0.0
Sargodha,Pakistan,975886.0,32.08586,72.67418,0,0.0
Kirkuk,Iraq,975000.0,35.46806,44.39222,0,0.0
Lingbi,China,974720.0,33.6914286,117.1926341,0,0.0
Ruzhou,China,974541.0,34.1678145,112.8392579,0,0.0
Zhongmu,China,973665.0,34.7207718,113.9818305,0,0.0
Xiangcheng,China,973197.0,24.5903486,117.525129,0,0.0
Xiangcheng,China,973197.0,33.272647,114.90115,0,0.0
Xiangcheng,China,973197.0,29.1109426,99.7448618,0,0.0
Managua,Nicaragua,973087.0,12.13282,-86.2504,0,0.0
Honghuagang,China,971337.0,27.6500812,106.8942254,0,0.0
Provincia de Trujillo,Peru,970016.0,-8.08333,-78.91667,0,0.0
Laiwu,China,969632.0,36.2150252,117.6698329,0,0.0
Dnipro,Ukraine,968502.0,48.4593,35.03865,0,0.0
Yuyang,China,967639.0,38.2769046,109.7155405,0,0.0
Yishui,China,967570.0,35.7911764,118.6227646,0,0.0
Feixi ,China,967508.0,31.7266786,116.7284879,0,0.0
Xichang,China,966000.0,27.8458993,102.124224,0,0.0
Cebu City,Philippines,965332.0,10.3789228,123.7637216,0,0.0
Jiang'an,China,965260.0,28.6901882,105.1061681,0,0.0
Kurukshetra,India,964655.0,30.0,76.75,0,0.0
Tiruppur,India,963173.0,11.11541,77.35456,0,0.0
Jaffna District,Sri Lanka,962440.0,9.75,80.08333,0,0.0
Qingzhou,China,960882.0,36.6843271,118.4738118,0,0.0
Coimbatore,India,959823.0,10.8,77.09,0,0.0
Shantou,China,3838900.0,23.3563921,116.6775856,3,0.08
Xiangtan,China,959303.0,27.681864,112.626292,0,0.0
Yaodu,China,959198.0,36.1232569,111.502278,0,0.0
Sedibeng,South Africa,957528.0,-26.56686,28.18277,0,0.0
Wucheng,China,957055.0,37.2076575,116.0820353,0,0.0
Joypurhat,Bangladesh,956431.0,25.0656707,88.7683265,0,0.0
Santai,China,955811.0,31.1196121,105.0225398,0,0.0
Danzhou,China,954259.0,19.568889,109.404444,0,0.0
Xuanhan,China,954090.0,31.516362,107.885021,0,0.0
Yinchuan,China,2859074.0,38.4852037,106.2261926,2,0.07
Longhai,China,952000.0,24.3469344,117.5395942,0,0.0
Longhai,China,952000.0,24.4490237,117.8132438,0,0.0
Wanbailin,China,951238.0,37.8699669,112.3958632,0,0.0
Pingjiang,China,951112.0,28.773017,113.7036455,0,0.0
Linzhou,China,950939.0,36.0673949,113.8105402,0,0.0
Anyue,China,950939.0,30.0039025,105.399258,0,0.0
Baksa,India,950075.0,26.69804,91.15142,0,0.0
Santo Domingo Este,Dominican Republic,948855.0,18.48847,-69.85707,0,0.0
Sale,Morocco,945101.0,34.0531,-6.79846,0,0.0
Huoqiu,China,944985.0,32.2686875,115.8673082,0,0.0
Bengaluru,India,8495492.0,12.97194,77.59369,8,0.09
Hubballi,India,943788.0,15.34776,75.13378,0,0.0
Ta‘izz,Yemen,940600.0,13.57952,44.02091,0,0.0
Mzimba District,Malawi,940184.0,-11.85428,33.60778,0,0.0
Xuzhou,China,938157.0,28.58689,104.718661,0,0.0
Fletchers Land,Jamaica,937700.0,17.97968,-76.791,0,0.0
Kingston,Jamaica,937700.0,17.99702,-76.79358,0,0.0
Arnett Gardens,Jamaica,937700.0,17.9915,-76.79829,0,0.0
Grants Pen,Jamaica,937700.0,18.03258,-76.78887,0,0.0
Jones Town,Jamaica,937700.0,17.98422,-76.79691,0,0.0
Oaklands,Jamaica,937700.0,18.03558,-76.79563,0,0.0
Luoding,China,936931.0,22.6925875,111.4851366,0,0.0
Jerusalem,Israel,936425.0,31.76904,35.21633,0,0.0
Chennai,India,4681087.0,13.08784,80.27847,4,0.09
Huaiyuan,China,935335.0,33.0113466,116.7016207,0,0.0
Ho Chi Minh City,Vietnam,14002598.0,10.82302,106.62965,14,0.1
Suixi,China,932402.0,33.6271576,116.354116,0,0.0
Suixi,China,932402.0,33.9166455,116.7640522,0,0.0
Suixi,China,932402.0,21.289356,110.0089281,0,0.0
Jiedong,China,931719.0,23.5691604,116.4071625,0,0.0
Khulna,Bangladesh,928891.0,22.3535139,88.8340709,0,0.0
Darrang,India,928500.0,26.51195,92.16843,0,0.0
Yanhu,China,928334.0,35.051328,110.9602037,0,0.0
Yushui,China,927950.0,27.8694688,114.9984023,0,0.0
City of Sydney,Australia,5557233.0,-33.86778,151.20844,5,0.09
Sydney,Australia,5557233.0,-33.86785,151.20732,5,0.09
Xingbin,China,925377.0,23.6628439,109.2161165,0,0.0
Nay Pyi Taw,Myanmar,925000.0,19.745,96.12972,0,0.0
Juye,China,923923.0,35.3887802,116.056912,0,0.0
Juye,China,923923.0,35.39472,116.08833,0,0.0
Yu'an,China,923301.0,31.7604343,115.9554179,0,0.0
Xiangzhou,China,923235.0,24.0402845,109.7653662,0,0.0
Xiangzhou,China,923235.0,32.218467,112.262304,0,0.0
Mahendragarh,India,922088.0,28.25,76.16667,0,0.0
Pierce County,United States,921130.0,31.35876,-82.21274,0,0.0
Pierce County,United States,921130.0,42.26437,-97.60129,0,0.0
Pierce County,United States,921130.0,48.2496,-99.97182,0,0.0
Pierce County,United States,921130.0,44.71963,-92.42249,0,0.0
Linwei,China,920044.0,34.4940967,109.4920216,0,0.0
São Luís,Brazil,917237.0,-2.52972,-44.30278,0,0.0
São Luís,Brazil,917237.0,1.005,-60.15888889,0,0.0
Tiruchirappalli,India,916857.0,10.97,78.65,0,0.0
Naples,Italy,913462.0,40.85216,14.26811,0,0.0
Sialkot,Pakistan,911817.0,32.49268,74.53134,0,0.0
Warri,Nigeria,910000.0,5.51737,5.75006,0,0.0
Beichen,China,909643.0,39.2547896,117.009098,0,0.0
Hengzhou,China,909400.0,22.773994,109.171195,0,0.0
Xinhui,China,909277.0,22.3836907,113.0328366,0,0.0
Kern,United States,909235.0,35.34285,-118.7299,0,0.0
Padang,Indonesia,909040.0,-0.94924,100.35427,0,0.0
Yuzhou,China,908121.0,22.6314632,110.1461735,0,0.0
Yuzhou,China,908121.0,34.203884,113.378745,0,0.0
Taishan,China,907744.0,22.0638475,112.7128587,0,0.0
Wuchuan,China,907354.0,21.4413258,110.6942289,0,0.0
Wuchuan,China,907354.0,28.5663348,107.8957142,0,0.0
Wuchuan,China,907354.0,41.0937263,111.4420163,0,0.0
Campo Grande,Brazil,906092.0,-20.44278,-54.64639,0,0.0
Teresina,Brazil,905692.0,-5.10252,-42.7407,0,0.0
Yudu,China,905439.0,25.957738,115.487055,0,0.0
Changyuan,China,905436.0,35.2000381,114.6629926,0,0.0
Adana,Turkey,1810646.0,36.9975753,35.1232526,1,0.06
Wafangdian,China,905082.0,39.6236752,122.005039,0,0.0
Kailali,Nepal,904666.0,28.7309061,80.2184777,0,0.0
Dongpo,China,904412.0,30.0581261,103.7237007,0,0.0
Bobo-Dioulasso,Burkina Faso,903887.0,11.17715,-4.2979,0,0.0
Yangxin,China,901971.0,37.6319379,117.5974413,0,0.0
Donetsk,Ukraine,901645.0,48.023,37.80224,0,0.0
Miami-Dade,United States,2701767.0,25.60897,-80.49867,2,0.07
Qom,Iran,900000.0,34.6401,50.8764,0,0.0
Abū Ghurayb,Iraq,900000.0,33.30563,44.18477,0,0.0
Bishkek,Kyrgyzstan,900000.0,42.87,74.59,0,0.0
Dachuan,China,899728.0,31.1163078,107.3663078,0,0.0
Libreville,Gabon,899000.0,0.39241,9.45356,0,0.0
Buner,Pakistan,897319.0,34.44301,72.49933,0,0.0
Xiayi,China,896578.0,34.2382689,116.1392666,0,0.0
Hanbin,China,894853.0,32.697954,109.022175,0,0.0
Macheng,China,893654.0,31.3198572,115.1108647,0,0.0
Zululand,South Africa,892310.0,-27.81139,31.29426,0,0.0
Pingyi,China,892276.0,35.5177818,117.6097303,0,0.0
Melbourne,Australia,5350705.0,-37.814,144.96332,5,0.09
Wangcheng,China,890214.0,28.3796246,112.8499438,0,0.0
Bangui,Central African Republic,889231.0,4.36122,18.55496,0,0.0
Ngaka Modiri Molema,South Africa,889108.0,-25.95559,25.80782,0,0.0
Abeokuta,Nigeria,888924.0,7.15571,3.34509,0,0.0
Zaoyang,China,888794.0,32.1307686,112.7665716,0,0.0
Nankang,China,888474.0,25.8437759,114.7075646,0,0.0
Lujiang,China,888238.0,31.2558864,116.9731677,0,0.0
Cuiping,China,887359.0,28.8812062,104.6666615,0,0.0
Liling,China,885987.0,27.6528937,113.4354686,0,0.0
Province du Sanmatenga,Burkina Faso,885642.0,13.25,-1.08333,0,0.0
Liangzhou,China,885277.0,37.904466,102.776799,0,0.0
Tancheng,China,885156.0,34.6148165,118.361505,0,0.0
Amathole,South Africa,880790.0,-32.55895,27.45919,0,0.0
Thiès,Senegal,879186.0,14.73004,-16.86974,0,0.0
As Sulaymānīyah,Iraq,878146.0,35.56496,45.4329,0,0.0
Gaomi,China,877393.0,36.3654065,119.8005385,0,0.0
South Tripura,India,876001.0,23.1671,91.60953,0,0.0
Yangchun,China,875896.0,22.2518472,111.6936609,0,0.0
Puning,China,874954.0,23.31072,116.16869,0,0.0
Aligarh,India,874408.0,27.83333,78.16667,0,0.0
Barinas,Venezuela,873962.0,8.62261,-70.20749,0,0.0
Fangcheng,China,873731.0,21.7334318,108.0526815,0,0.0
Jalandhar,India,873725.0,31.41667,75.61667,0,0.0
Ankang,China,870126.0,32.7064648,109.0177837,0,0.0
Lhasa,China,867891.0,29.6542054,91.1173015,0,0.0
Alfred Nzo,South Africa,867864.0,-30.66803,29.1549,0,0.0
Tai’an,China,1735425.0,36.18528,117.12,1,0.06
Yanjiang,China,867119.0,30.12108,104.64811,0,0.0
Yanjiang,China,867119.0,30.0999907,104.7669969,0,0.0
Cape Winelands,South Africa,866001.0,-33.32249,19.68998,0,0.0
El Paso County,United States,865657.0,38.83209,-104.52558,0,0.0
Pimpri-Chinchwad,India,1729320.0,18.62777778,73.81305556,1,0.06
Hepu,China,864193.0,21.7471247,109.3491272,0,0.0
Middlesex County,United States,863162.0,41.43538,-72.52312,0,0.0
Middlesex County,United States,863162.0,37.59737,-76.57814,0,0.0
Gongzhuling,China,862313.0,43.7703784,124.7656749,0,0.0
Worcester County,United States,862111.0,38.2165,-75.29667,0,0.0
Worcester County,United States,862111.0,42.3514,-71.90774,0,0.0
Lianyuan,China,862099.0,27.738153,111.7776649,0,0.0
Sihong,China,858740.0,33.4802613,118.2112762,0,0.0
Guang’an,China,858159.0,30.47413,106.63696,0,0.0
Dafang,China,857578.0,27.285132,105.664125,0,0.0
Montgomery County,United States,856553.0,32.22026,-86.20761,0,0.0
Montgomery County,United States,856553.0,34.53879,-93.65953,0,0.0
Montgomery County,United States,856553.0,32.17336,-82.53482,0,0.0
Montgomery County,United States,856553.0,39.23104,-89.47887,0,0.0
Montgomery County,United States,856553.0,40.04038,-86.8933,0,0.0
Montgomery County,United States,856553.0,41.03014,-95.15638,0,0.0
Montgomery County,United States,856553.0,37.19252,-95.74288,0,0.0
Montgomery County,United States,856553.0,38.03353,-83.9131,0,0.0
Montgomery County,United States,856553.0,33.4941,-89.6164,0,0.0
Montgomery County,United States,856553.0,38.94149,-91.47021,0,0.0
Montgomery County,United States,856553.0,42.90228,-74.43968,0,0.0
Montgomery County,United States,856553.0,35.33246,-79.90547,0,0.0
Kuancheng,China,856177.0,40.609485,118.4794631,0,0.0
Tong'an,China,855920.0,24.7466067,117.9244362,0,0.0
Mexicali,Mexico,854186.0,32.50513,-115.14771,0,0.0
Bincheng,China,853649.0,37.4311343,118.0136196,0,0.0
Dera Ismāīl Khān District,Pakistan,852995.0,31.85963,70.64879,0,0.0
Pingqiao,China,852094.0,32.3393634,114.0911834,0,0.0
Oran,Algeria,852000.0,35.69906,-0.63588,0,0.0
Jashpur,India,851669.0,22.78495,83.84573,0,0.0
Yongnian,China,851227.0,36.7874882,114.6399121,0,0.0
Tegucigalpa,Honduras,850848.0,14.0818,-87.20681,0,0.0
Zomba District,Malawi,850000.0,-15.43007,35.41829,0,0.0
Thanh Hóa,Vietnam,850000.0,19.8,105.76667,0,0.0
Sindhudurg,India,849651.0,16.17,73.7,0,0.0
Haute-Savoie,France,849583.0,46.06143,6.45374,0,0.0
Akure,Nigeria,847903.0,7.25256,5.19312,0,0.0
Zhangpu,China,847535.0,24.0286744,117.3973291,0,0.0
Gedeo Zone,Ethiopia,847434.0,6.12727,38.27716,0,0.0
Erbil,Iraq,846000.0,36.18333,44.01193,0,0.0
Kathmandu,Nepal,845767.0,27.7090302,85.2849327,0,0.0
Zizhong,China,845579.0,29.7825111,104.8099251,0,0.0
Takeo,Cambodia,843931.0,10.99081,104.78498,0,0.0
Kasungu District,Malawi,842953.0,-13.0,33.41667,0,0.0
Dazhu,China,841960.0,30.6550158,107.2787726,0,0.0
Xinluo,China,841745.0,25.1769164,116.6801496,0,0.0
Turin,Italy,841600.0,45.07049,7.68682,0,0.0
Rio de Janeiro,Brazil,6730729.0,-22.92008,-43.33069,7,0.1
Cochabamba,Bolivia,841276.0,-17.3895,-66.1568,0,0.0
Ahvaz,Iran,841145.0,31.31901,48.6842,0,0.0
Junan,China,841035.0,35.1757385,118.8296704,0,0.0
Anqiu,China,840553.0,36.4794705,119.2129818,0,0.0
Yugan,China,840498.0,28.6509663,116.6755204,0,0.0
Chris Hani,South Africa,840055.0,-31.79033,26.43965,0,0.0
Weishi,China,839809.0,34.3731413,114.1531132,0,0.0
Pietermaritzburg,South Africa,839327.0,-29.61679,30.39278,0,0.0
West Rand,South Africa,838594.0,-26.24565,27.55538,0,0.0
Saratov,Russia,838042.0,51.54056,46.00861,0,0.0
Bhubaneswar,India,837737.0,20.27241,85.83385,0,0.0
Buffalo City Metropolitan,South Africa,834997.0,-32.95141,27.61164,0,0.0
Dazu,China,834592.0,29.6154725,105.4248736,0,0.0
Shunqing,China,834294.0,30.9457793,106.1011638,0,0.0
Chuanshan,China,832863.0,30.5147192,105.5898768,0,0.0
Huai'an,China,2494013.0,33.5978169,119.0196971,2,0.08
Qingjiangpu,China,2494013.0,33.5537944,119.0210431,2,0.08
Huai'an,China,2494013.0,33.58861,119.01917,2,0.08
Dedza District,Malawi,830512.0,-14.26273,34.18559,0,0.0
Jin'an,China,829236.0,31.6527558,116.3145978,0,0.0
Jin'an,China,829236.0,26.219724,119.1490513,0,0.0
Yingzhou,China,828527.0,32.8602796,115.3904035,0,0.0
Snohomish County,United States,827957.0,48.04602,-121.72218,0,0.0
Semarang,Indonesia,1653524.0,-6.99306,110.42083,1,0.06
Devon,United Kingdom,826319.0,50.75,-3.75,0,0.0
Neemuch,India,826067.0,24.47,74.87,0,0.0
Xinmi,China,826031.0,34.5307313,113.3761237,0,0.0
East Khasi Hills,India,825922.0,25.3805,91.78905,0,0.0
Shuangcheng,China,825634.0,45.35,126.28333,0,0.0
Shuangcheng,China,825634.0,45.3662519,126.3046846,0,0.0
La Union,Philippines,825072.0,9.8535105,124.4683355,0,0.0
Laizhou,China,824708.0,37.1773133,119.9370943,0,0.0
Xincai,China,823829.0,32.7579396,114.9555949,0,0.0
Nova Iguaçu,Brazil,823302.0,-22.75917,-43.45111,0,0.0
Huadu,China,1642360.0,23.4612392,113.2141965,1,0.06
Binhai,China,820084.0,16.8407901,112.3390382,0,0.0
Binhai,China,820084.0,33.9933605,119.8146913,0,0.0
Jiaxiang,China,820036.0,35.4089574,116.3368106,0,0.0
Rufisque Department,Senegal,818337.0,14.74339,-17.19841,0,0.0
Wuwei,China,817997.0,31.2215668,117.4805476,0,0.0
Wuwei,China,817997.0,37.928881,102.6359886,0,0.0
João Pessoa,Brazil,817511.0,-7.115,-34.86306,0,0.0
Wayanad,India,817420.0,11.605,76.083,0,0.0
Nanbu,China,817235.0,31.3169276,105.9075233,0,0.0
Renqiu,China,816401.0,38.7063767,116.1062203,0,0.0
Renqiu,China,816401.0,38.69889,116.09361,0,0.0
Zhijin,China,815661.0,26.6414506,105.7933078,0,0.0
Barcelona,Venezuela,815141.0,10.13625,-64.68618,0,0.0
Jiangcheng,China,814688.0,21.7795872,111.8908375,0,0.0
Jiangcheng,China,814688.0,22.5868926,101.8615883,0,0.0
Daowai,China,811178.0,45.8324184,126.8488572,0,0.0
Binyang,China,809400.0,23.1729928,108.9397846,0,0.0
Bhayandar,India,809378.0,19.30157,72.85107,0,0.0
Matara District,Sri Lanka,809344.0,6.1329,80.528,0,0.0
Shunde,China,3229090.0,22.8545655,113.1865161,3,0.09
Tapi,India,807022.0,21.12,73.4,0,0.0
Yinan,China,806390.0,35.5499885,118.4595027,0,0.0
Cúcuta,Colombia,806378.0,7.89391,-72.50782,0,0.0
Huaiji,China,805177.0,23.9228747,112.1616895,0,0.0
Luchuan,China,804427.0,22.2597918,110.2637329,0,0.0
Yichang,China,4017607.0,30.6941332,111.2803512,4,0.1
Freetown,Sierra Leone,802639.0,8.48714,-13.2356,0,0.0
Haifeng,China,802454.0,23.0267537,115.3414869,0,0.0
Fengrun,China,800740.0,39.83333,118.11667,0,0.0
Fengrun,China,800740.0,39.8314542,118.1555637,0,0.0
Jintang,China,800371.0,30.7350928,104.6158195,0,0.0
Blantyre,Malawi,800264.0,-15.78499,35.00854,0,0.0
Narela,India,800000.0,28.85267,77.09288,0,0.0
Provincia de Piura,Peru,799321.0,-5.21416,-80.40617,0,0.0
Zhecheng,China,799213.0,34.1127169,115.2765011,0,0.0
Hunnan,China,798765.0,41.7511576,123.5931891,0,0.0
Hengnan,China,796327.0,26.694504,112.504536,0,0.0
Hejian,China,795198.0,38.4425293,116.0901457,0,0.0
Laiyang,China,794986.0,36.9786591,120.7068644,0,0.0
Huize,China,794279.0,26.4473664,103.4383826,0,0.0
Zarqa,Jordan,792665.0,32.07275,36.08796,0,0.0
Qichun,China,792101.0,30.321291,115.5704714,0,0.0
Qiyang,China,791939.0,26.3760947,111.9457969,0,0.0
Changning,China,790676.0,26.4247142,112.3943209,0,0.0
Changning,China,790676.0,24.8256972,99.6104198,0,0.0
Kolwezi,Democratic Republic of the Congo,790248.0,-10.716667,25.466667,0,0.0
Vinh,Vietnam,790000.0,18.67337,105.69232,0,0.0
Narail,Bangladesh,788671.0,23.131757,89.2625844,0,0.0
Zhaotong,China,787845.0,27.3417508,103.7146923,0,0.0
Mangaung Metropolitan,South Africa,787803.0,-29.15627,26.35116,0,0.0
Zhengzhou,China,12600574.0,34.7472531,113.619321,15,0.12
Jinghai,China,787106.0,38.8321717,116.6537573,0,0.0
Datia,India,786754.0,25.75,78.5,0,0.0
Gongyi,China,785242.0,34.749075,113.0160586,0,0.0
Natal,Brazil,784249.0,-5.8101,-35.22674,0,0.0
Zibo,China,4704138.0,36.8129564,118.0488401,5,0.11
Changfeng,China,783982.0,32.231338,116.8826532,0,0.0
Kashgar,China,782662.0,39.4665981,75.9900135,0,0.0
Soacha,Colombia,782647.0,4.57937,-74.21682,0,0.0
Santo André,Brazil,782048.0,-7.24178,-36.6146,0,0.0
Anhua,China,780969.0,28.3031394,111.402883,0,0.0
Xingning,China,779411.0,24.2579216,115.7531534,0,0.0
Xingning,China,779411.0,22.9450369,108.5291283,0,0.0
Korla,China,779352.0,41.673238,85.716234,0,0.0
Thabo Mofutsanyana,South Africa,779330.0,-28.24378,28.34077,0,0.0
Yining,China,778047.0,43.9052027,81.2747797,0,0.0
Lankao,China,777278.0,34.8775,114.965833,0,0.0
Jinping,China,777024.0,26.6774641,109.1938575,0,0.0
Jinping,China,777024.0,22.757772,103.162832,0,0.0
Qian'an,China,776752.0,39.9978416,118.6949899,0,0.0
Qian'an,China,776752.0,44.9741842,123.9642101,0,0.0
Zhaoqing,China,1553109.0,23.0501661,112.4603629,1,0.06
Morbihan,France,776103.0,47.84765,-2.7776,0,0.0
Lincolnshire,United Kingdom,775524.0,53.16667,-0.25,0,0.0
Homs,Syria,775404.0,34.72682,36.72339,0,0.0
Guangfeng,China,775364.0,28.3853411,118.2959839,0,0.0
Kegalle District,Sri Lanka,774542.0,7.1167,80.3333,0,0.0
Zouping,China,774517.0,36.8629315,117.736995,0,0.0
Xuancheng,China,774332.0,30.9412541,118.7540167,0,0.0
Kotli District,Pakistan,774194.0,33.44559,73.91557,0,0.0
Şehitkamil,Turkey,774179.0,37.17217,37.36974,0,0.0
Dowa District,Malawi,772569.0,-13.60098,33.82378,0,0.0
Guangnan,China,771948.0,24.0479436,105.0519035,0,0.0
Ibb,Yemen,771514.0,13.96667,44.18333,0,0.0
Hulan,China,769997.0,45.98333,126.6,0,0.0
Hulan,China,769997.0,45.9733487,126.6013646,0,0.0
Haut-Rhin,France,767800.0,47.87603,7.2719,0,0.0
Bogotá D.C.,Colombia,7674366.0,4.61263889,-74.0705,9,0.12
Zagreb,Croatia,767131.0,45.81444,15.97798,0,0.0
Qidong,China,766920.0,26.8007069,112.0847511,0,0.0
Jinan,China,9202432.0,36.6519754,117.1138479,11,0.12
Dangshan,China,765564.0,34.4624487,116.0691294,0,0.0
Dodoma,Tanzania,765179.0,-6.17221,35.73947,0,0.0
Pikine,Senegal,764597.0,14.76457,-17.39071,0,0.0
Gard,France,764010.0,44.0179,4.28751,0,0.0
Dera Ismail Khan,Pakistan,763195.0,31.83129,70.9017,0,0.0
Almería,Spain,763030.0,37.16667,-2.33333,0,0.0
Bahawalpur,Pakistan,762111.0,29.39779,71.6752,0,0.0
Uberlândia,Brazil,761835.0,-19.02333,-48.33477,0,0.0
Jiangyang,China,761576.0,28.8540711,105.418453,0,0.0
Dongming,China,760956.0,35.275857,115.1015207,0,0.0
Puttalam District,Sri Lanka,760778.0,8.0454,79.9319,0,0.0
Gangbei,China,760633.0,23.2325135,109.6497338,0,0.0
Rui'an,China,1520386.0,27.7809047,120.6512652,1,0.07
Huangmei,China,759928.0,30.0182561,115.9289051,0,0.0
Sheyang,China,759403.0,33.7679606,120.3219301,0,0.0
Pikine Department,Senegal,758554.0,14.76515,-17.35198,0,0.0
Capitale-Nationale,Canada,757950.0,47.376,-71.12337,0,0.0
Xupu,China,757797.0,27.790516,110.632213,0,0.0
Beilin,China,756840.0,46.6520372,126.9626572,0,0.0
Bishan,China,756022.0,29.5814828,105.8789085,0,0.0
Leping,China,753787.0,28.9755957,117.2584106,0,0.0
Ugu,South Africa,753336.0,-30.54365,30.2748,0,0.0
Maturín,Venezuela,753254.0,9.74569,-63.18323,0,0.0
Devbhumi Dwarka,India,752484.0,22.20253,69.65498,0,0.0
Shizuishan,China,751389.0,38.9868531,106.3771974,0,0.0
Lichuan,China,750670.0,30.244508,108.815759,0,0.0
Lichuan,China,750670.0,27.2502,116.9459013,0,0.0
Kaiping,China,748777.0,39.705102,118.2625937,0,0.0
Juancheng,China,747972.0,35.5344257,115.5387841,0,0.0
Gong'an,China,747134.0,29.9312975,112.1648848,0,0.0
Shuicheng,China,746407.0,26.5511613,104.9551167,0,0.0
Minquan,China,746389.0,34.6453668,115.1381153,0,0.0
Waterberg,South Africa,745758.0,-24.20514,27.9787,0,0.0
Bareilly,India,745435.0,28.41667,79.38333,0,0.0
Ningjin,China,745389.0,37.681111,116.823056,0,0.0
Buraydah,Saudi Arabia,745353.0,26.32599,43.97497,0,0.0
Fengjie,China,744836.0,30.9285668,109.0645294,0,0.0
Haizhou,China,744773.0,41.9555194,121.6266396,0,0.0
Gao'an,China,744694.0,28.344233,115.2896968,0,0.0
Bazhou,China,743226.0,39.0776239,116.6039332,0,0.0
Bazhou,China,743226.0,31.8157311,106.8749986,0,0.0
Nampula,Mozambique,743000.0,-15.11646,39.2666,0,0.0
Dr Kenneth Kaunda,South Africa,742821.0,-26.80678,26.56926,0,0.0
Zhuanghe,China,742496.0,39.6972967,122.9708389,0,0.0
Tasikmalaya,Indonesia,741760.0,-7.3274,108.2207,0,0.0
Wancheng,China,741251.0,32.9030957,112.619109,0,0.0
Bouaké,Ivory Coast,740000.0,7.69385,-5.03031,0,0.0
Bongaigaon,India,738804.0,26.4603,90.6464,0,0.0
Province du Boulgou,Burkina Faso,736559.0,11.5,-0.41667,0,0.0
Oyo,Nigeria,736072.0,7.85257,3.93125,0,0.0
Machinga District,Malawi,735438.0,-14.94583,35.57367,0,0.0
Yvelines,France,1470778.0,48.80546,1.85696,1,0.07
Mumbai,India,15414288.0,19.07283,72.88261,20,0.13
Kandhamal,India,733110.0,20.3,84.0,0,0.0
Meurthe-et-Moselle,France,732898.0,48.65082,6.1566,0,0.0
Shehong,China,732380.0,30.8732461,105.3845733,0,0.0
Qianxi,China,732008.0,27.088074,106.105158,0,0.0
Qianxi,China,732008.0,40.2428514,118.3664993,0,0.0
Nuwara Eliya District,Sri Lanka,731415.0,6.9785,80.7133,0,0.0
North West Delhi,India,3656539.0,28.70113,77.10154,4,0.11
Pizhou,China,1462563.0,34.3402702,118.0068173,1,0.07
Liangshan,China,730683.0,35.7660857,116.1258857,0,0.0
Liangshan,China,730683.0,27.8849814,102.2657395,0,0.0
Xingyang,China,730135.0,34.7882287,113.3732183,0,0.0
Xiangxiang,China,730103.0,27.7517719,112.5255933,0,0.0
Tianjia'an,China,730078.0,32.5329274,116.8297877,0,0.0
Dengfeng,China,729332.0,34.4551772,113.0444455,0,0.0
Yilong,China,729141.0,31.4195765,106.5078664,0,0.0
Pingyu,China,728672.0,32.958377,114.6303073,0,0.0
Nanning,China,8741584.0,22.8193063,108.3627211,11,0.13
Ashgabat,Turkmenistan,727700.0,37.95,58.38333,0,0.0
Jiyuan,China,727265.0,35.09,112.58,0,0.0
Jiyuan,China,727265.0,35.0945453,112.5810521,0,0.0
Chaohu,China,727162.0,31.600963,117.8594813,0,0.0
Daming,China,726396.0,36.2899958,115.2415779,0,0.0
Guanyun,China,725047.0,34.2853648,119.2339019,0,0.0
Muzaffarābād,Pakistan,725000.0,34.37002,73.47082,0,0.0
Cenxi,China,724364.0,22.9212029,110.9898501,0,0.0
Kaili,China,723100.0,26.64678,107.950619,0,0.0
General Santos,Philippines,722059.0,6.1374279,124.9927049,0,0.0
Thyolo District,Malawi,721456.0,-16.10583,35.1506,0,0.0
Moradabad,India,721139.0,28.8525,78.79703,0,0.0
Muradabad,India,721139.0,28.83888889,78.77694444,0,0.0
Zhong,China,720976.0,30.3197267,107.5651691,0,0.0
Qinbei,China,720442.0,22.1769151,108.5239778,0,0.0
Laixi,China,720103.0,36.8618279,120.5158492,0,0.0
Chitwan,Nepal,719859.0,27.6195362,84.027934,0,0.0
San Pedro Sula,Honduras,719064.0,15.50417,-88.025,0,0.0
Horqin,China,718665.0,42.9531164,122.340567,0,0.0
Conghua,China,717684.0,23.670764,113.6934958,0,0.0
Lviv,Ukraine,717273.0,49.83826,24.02324,0,0.0
Nayong,China,716703.0,26.8591454,105.2539111,0,0.0
Davidson County,United States,715884.0,35.79328,-80.21269,0,0.0
Aksu,China,715319.0,41.1677575,80.2582136,0,0.0
Aksu,China,715319.0,40.55689,81.84629,0,0.0
Xingguo,China,715149.0,26.3953859,115.4351968,0,0.0
Hecheng,China,714400.0,27.6074968,109.9566644,0,0.0
Jian'an,China,713977.0,34.124682,113.8168859,0,0.0
Qilihe,China,712271.0,35.986124,103.744432,0,0.0
Changtu,China,711818.0,42.9783501,123.9492812,0,0.0
Guangshui,China,710900.0,31.6838156,113.8407641,0,0.0
Changge,China,710033.0,34.229524,113.848064,0,0.0
Zanzibar,Tanzania,709809.0,-6.16394,39.19793,0,0.0
Bhiwandi,India,709665.0,19.30023,73.05881,0,0.0
Linshui,China,707537.0,30.252604,106.982041,0,0.0
Bukavu,Democratic Republic of the Congo,707053.0,-2.49077,28.84281,0,0.0
Mahottari,Nepal,706994.0,26.8843934,85.2196324,0,0.0
uThukela,South Africa,706588.0,-28.7192,29.65799,0,0.0
Hanshou,China,706249.0,28.866813,112.030207,0,0.0
Meherpur,Bangladesh,705356.0,23.7897218,88.3931949,0,0.0
Calvados,France,704605.0,49.09011,-0.30608,0,0.0
Warangal,India,704570.0,18.0,79.83333,0,0.0
Fengqiu,China,704532.0,35.0432308,114.42108,0,0.0
Tol’yatti,Russia,702879.0,53.5303,49.3461,0,0.0
Jaboatão,Brazil,702621.0,-8.18028,-35.00139,0,0.0
Ningdu,China,702394.0,26.5792425,116.0221022,0,0.0
Santo Domingo Oeste,Dominican Republic,701269.0,18.5,-70.0,0,0.0
Yanggu,China,700083.0,36.1142991,115.7857865,0,0.0
Battagram,Pakistan,700000.0,34.67719,73.02329,0,0.0
Latakia,Syria,700000.0,35.53168,35.79011,0,0.0
Suez,Egypt,699541.0,29.97371,32.52627,0,0.0
Zengdu,China,699475.0,31.71801,113.3651519,0,0.0
Agadir,Morocco,698310.0,30.42018,-9.59815,0,0.0
Shucheng,China,697250.0,31.2905609,116.5139681,0,0.0
Sarajevo,Bosnia and Herzegovina,696731.0,43.84864,18.35644,0,0.0
Biyang,China,695239.0,32.8790165,113.4231836,0,0.0
Turpan,China,693988.0,42.4561611,89.7283163,0,0.0
Turpan,China,693988.0,42.93333,89.16667,0,0.0
North Tripura,India,693947.0,24.1305,92.15552,0,0.0
Bauchi,Nigeria,693700.0,10.31032,9.84388,0,0.0
Salem,India,693236.0,11.6537012,77.9982106,0,0.0
Changshou,China,692960.0,29.9744395,106.8284488,0,0.0
Xihua,China,692846.0,33.7901383,114.5256383,0,0.0
Cuiabá,Brazil,691875.0,-15.41924,-55.89023,0,0.0
Qitaihe,China,689611.0,45.7703578,131.0066556,0,0.0
Hohhot,China,3446100.0,40.8184528,111.6601939,4,0.12
Province du Boulkiemdé,Burkina Faso,689184.0,12.33333,-2.16667,0,0.0
Cambridgeshire,United Kingdom,689109.0,52.33333,0.08333,0,0.0
uMkhanyakude,South Africa,689090.0,-27.62236,32.32945,0,0.0
Dongguan,China,9644871.0,23.0183568,113.7452332,13,0.13
Hejiang,China,688731.0,28.8058049,105.9049929,0,0.0
Tongnan,China,688115.0,30.1122583,105.4483889,0,0.0
Baita,China,687890.0,41.2657393,123.1752151,0,0.0
Beira,Mozambique,687764.0,-19.84361,34.83889,0,0.0
Wenshang,China,687544.0,35.7115565,116.4914646,0,0.0
Loiret,France,687063.0,47.93598,2.30173,0,0.0
Siguiri Prefecture,Guinea,687002.0,11.66667,-9.5,0,0.0
Yanji,China,686136.0,43.0718986,129.3755747,0,0.0
Shuangfeng,China,685917.0,27.4291431,112.1621255,0,0.0
Tongliang,China,685729.0,29.8070408,105.6998437,0,0.0
Taojiang,China,685596.0,28.5200908,112.148511,0,0.0
Rupnagar,India,684627.0,31.04,76.52,0,0.0
Jaboatão dos Guararapes,Brazil,684293.0,-8.14568,-34.97381,0,0.0
Ningyuan,China,684121.0,25.670556,111.989722,0,0.0
Mulanje District,Malawi,684107.0,-15.9344,35.4999,0,0.0
Pubei,China,683964.0,22.2559843,109.4791784,0,0.0
Wuming,China,683826.0,23.2716283,108.2496629,0,0.0
Wenzhou,China,9572903.0,27.9963899,120.695345,13,0.14
Baoying,China,682219.0,33.2423744,119.3529695,0,0.0
Neihuang,China,682070.0,35.9540544,114.9005399,0,0.0
Lasbela,Pakistan,680977.0,25.78634,66.6033,0,0.0
Rasht,Iran,679995.0,37.27611,49.58862,0,0.0
Dushanbe,Tajikistan,679400.0,38.53666667,68.78,0,0.0
Handan,China,1358318.0,36.6107711,114.4857072,1,0.07
Cotonou,Benin,679012.0,6.36536,2.41833,0,0.0
Situbondo,Indonesia,676703.0,-7.70623,114.00976,0,0.0
Wuxue,China,676264.0,29.847035,115.5562861,0,0.0
Soledad,Colombia,676014.0,10.89986,-74.78787,0,0.0
Gnagna,Burkina Faso,675897.0,12.9188,0.0392,0,0.0
Dongkou,China,675495.0,27.100881,110.618475,0,0.0
Jiexi,China,674829.0,23.4337991,115.8378454,0,0.0
Gorakhpur,India,673446.0,26.91667,83.25,0,0.0
Hami,China,673383.0,42.8254995,93.5130464,0,0.0
Longquanyi,China,1346210.0,30.5937038,104.3084901,1,0.07
Nouaceur,Morocco,672324.0,33.45839,-7.64726,0,0.0
Xiangfu,China,672139.0,34.6859611,114.4492205,0,0.0
Dingyuan,China,671361.0,32.4540049,117.3250882,0,0.0
Pinghu,China,671326.0,30.6782402,121.0116196,0,0.0
Xuanzhou,China,671209.0,30.9326858,118.4449474,0,0.0
Katsina,Nigeria,670000.0,12.99082,7.60177,0,0.0
Makassar,Indonesia,1338663.0,-5.14861,119.43194,1,0.07
Gulou,China,669090.0,34.7907681,114.3466204,0,0.0
Rongchang,China,668977.0,29.4698584,105.3505972,0,0.0
Echeng,China,668727.0,30.4032944,114.8863775,0,0.0
Ningyang,China,668520.0,35.7591944,116.800091,0,0.0
Charente-Maritime,France,668160.0,45.75556,-0.71314,0,0.0
Harbin,China,10009854.0,45.7593633,126.6276177,14,0.14
Copenhagen,Denmark,667099.0,43.893439,-75.673828,0,0.0
Zhaodong,China,666532.0,46.06771,125.98263,0,0.0
Zhaodong,China,666532.0,46.026373,125.814502,0,0.0
Bulawayo,Zimbabwe,665940.0,-20.15,28.58333,0,0.0
Yutian,China,664906.0,39.9004016,117.7323348,0,0.0
Yutian,China,664906.0,37.0882497,81.8122035,0,0.0
Villavicencio,Colombia,664148.0,4.07424,-73.4915,0,0.0
Makhachkala,Russia,662660.0,42.97638,47.50236,0,0.0
Zhuozhou,China,662532.0,39.4833502,115.96858,0,0.0
Banjarmasin,Indonesia,662230.0,-3.31987,114.59075,0,0.0
Wuzhi,China,661341.0,35.0984028,113.4011621,0,0.0
Jhalokati,Bangladesh,661160.0,22.5630352,89.8719159,0,0.0
Ntcheu District,Malawi,659608.0,-14.75,34.75,0,0.0
Bujumbura,Burundi,658859.0,-3.38193,29.36142,0,0.0
Pingchang,China,658644.0,31.6122717,107.1776834,0,0.0
Puducherry,India,657209.0,11.93381,79.82979,0,0.0
Suining,China,656760.0,30.5061493,105.574542,0,0.0
Lingbao,China,656571.0,34.5453526,110.8795605,0,0.0
Sheohar,India,656246.0,26.5,85.3,0,0.0
Renhuai,China,655300.0,27.885688,106.444535,0,0.0
Arapahoe,United States,655070.0,39.64977,-104.33924,0,0.0
Songzi,China,654762.0,30.1750972,111.7512714,0,0.0
Parsa,Nepal,654471.0,27.2196086,83.5454157,0,0.0
Settat Province,Morocco,652292.0,33.08333,-7.41667,0,0.0
Gulin,China,651958.0,27.9671596,105.9306192,0,0.0
Jieshou,China,650870.0,33.2630643,115.0610588,0,0.0
Dianjiang,China,650694.0,30.2443623,107.1275991,0,0.0
Chenggong,China,649501.0,24.8885797,102.8207599,0,0.0
Tivaouane,Senegal,649189.0,15.08519,-16.71058,0,0.0
Selçuklu,Turkey,648850.0,38.05761,32.54088,0,0.0
Hezhang,China,648471.0,27.192859,104.630354,0,0.0
Broward,United States,1944375.0,26.15186,-80.45589,2,0.1
Ampara District,Sri Lanka,648057.0,7.0833,81.75,0,0.0
Colombo,Sri Lanka,647557.0,6.93548,79.84868,0,0.0
Guntur,India,647508.0,16.29974,80.45729,0,0.0
Xiping,China,647311.0,33.390556,113.9175,0,0.0
Lejweleputswa,South Africa,646920.0,-28.23982,26.12649,0,0.0
Zichuan,China,646685.0,36.6438283,117.961169,0,0.0
Dafeng,China,645603.0,33.2019845,120.4962375,0,0.0
Liangping,China,645315.0,30.67409,107.7938,0,0.0
Osogbo,Nigeria,645000.0,7.77104,4.55698,0,0.0
Bikaner,India,644406.0,28.01762,73.31495,0,0.0
West Garo Hills,India,643291.0,25.56794,90.22447,0,0.0
Jinghong,China,642737.0,21.99102,100.73409,0,0.0
Jinghong,China,642737.0,22.0147814,100.7983916,0,0.0
Tengchong,China,642481.0,25.1725265,98.5168272,0,0.0
Pimpri,India,1284606.0,18.62292,73.80696,1,0.08
Baota,China,640951.0,36.5853219,109.4838471,0,0.0
Sihui,China,640910.0,23.4423808,112.6997273,0,0.0
Hwaseong-si,South Korea,640890.0,37.20682,126.8169,0,0.0
South Goa,India,640537.0,15.20425,74.16733,0,0.0
Shihe,China,640133.0,32.017801,113.993328,0,0.0
Hongtong,China,637812.0,36.3180195,111.6670365,0,0.0
Cuenca,Ecuador,636996.0,-2.90055,-79.00453,0,0.0
Inezgane-Ait Melloul,Morocco,636916.0,30.1,-9.03333,0,0.0
Huangchuan,China,636679.0,32.1175679,115.1511815,0,0.0
Luhe,China,636400.0,23.2812462,115.6153317,0,0.0
Likasi,Democratic Republic of the Congo,635768.0,-10.98303,26.7384,0,0.0
Qingpu,China,1271424.0,31.116234,120.9251069,1,0.08
Dehui,China,635476.0,44.53333,125.7,0,0.0
Huangdao,China,1903595.0,35.9589567,120.1930928,2,0.11
Tshikapa,Democratic Republic of the Congo,634529.0,-6.41621,20.79995,0,0.0
Cochin,India,633553.0,9.93988,76.26022,0,0.0
Xuwen,China,633258.0,20.4407244,110.2226484,0,0.0
Duodao,China,632954.0,30.97622,112.2024364,0,0.0
Province de la Comoé,Burkina Faso,632695.0,10.33333,-4.41667,0,0.0
Provincia Cercado,Bolivia,632013.0,-14.5,-64.33333,0,0.0
Provincia Cercado,Bolivia,632013.0,-17.33333,-66.16667,0,0.0
Provincia Cercado,Bolivia,632013.0,-17.91667,-67.08333,0,0.0
Provincia Cercado,Bolivia,632013.0,-21.58333,-64.58333,0,0.0
Fengyang,China,631934.0,32.83158,117.2259635,0,0.0
Benghazi,Libya,631555.0,32.11486,20.06859,0,0.0
Chuxiong,China,631530.0,25.4320355,101.7047854,0,0.0
Liangyuan,China,631325.0,34.483,115.603855,0,0.0
Aracaju,Brazil,630932.0,-10.98232,-37.10333,0,0.0
Palermo,Italy,630167.0,37.81667,13.58333,0,0.0
Qingzhen,China,629088.0,26.732666,106.348323,0,0.0
Huichuan,China,627721.0,27.753498,106.9300732,0,0.0
Departamento de Capital,Argentina,627704.0,-28.41667,-65.8,0,0.0
Departamento de Capital,Argentina,627704.0,-27.5,-58.75,0,0.0
Departamento de Capital,Argentina,627704.0,-27.5,-55.83333,0,0.0
Departamento de Capital,Argentina,627704.0,-31.53333,-68.53333,0,0.0
Departamento de Capital,Argentina,627704.0,-26.82825,-65.21126,0,0.0
Contagem,Brazil,627123.0,-19.93167,-44.05361,0,0.0
Guanghan,China,626132.0,30.9818013,104.2725546,0,0.0
Namangan,Uzbekistan,626120.0,40.9983,71.67257,0,0.0
Bhilai,India,625700.0,21.20919,81.4285,0,0.0
Kitwe,Zambia,625000.0,-12.80243,28.21323,0,0.0
Ndola,Zambia,624579.0,-12.95867,28.63659,0,0.0
Barnaul,Russia,623057.0,53.36056,83.76361,0,0.0
Langzhong,China,622667.0,31.5899565,106.0812814,0,0.0
Lizhou,China,621978.0,32.4322074,105.7734708,0,0.0
Qufu,China,621971.0,35.5956915,116.987543,0,0.0
Al Manşūrah,Egypt,621953.0,31.03637,31.38069,0,0.0
Kermanshah,Iran,621100.0,34.31417,47.065,0,0.0
Jinxian,China,620254.0,28.4579229,116.3185504,0,0.0
Feira de Santana,Brazil,619609.0,-12.26667,-38.96667,0,0.0
Shenbei New,China,619375.0,41.9540917,123.4767142,0,0.0
Ningjiang,China,619364.0,45.2147285,124.919686,0,0.0
Helwan,Egypt,619293.0,29.84194444,31.33416667,0,0.0
Qingxin,China,618523.0,23.8887571,112.8486756,0,0.0
Villa Nueva,Guatemala,618397.0,14.52512,-90.58544,0,0.0
Liunan,China,617925.0,24.3633613,109.2349999,0,0.0
Al Ḩudaydah,Yemen,617871.0,14.79781,42.95452,0,0.0
Izhevsk,Russia,616297.0,56.84976,53.20448,0,0.0
Khabarovsk,Russia,615600.0,48.48271,135.08379,0,0.0
Guichi,China,615274.0,30.5322664,117.1443472,0,0.0
Bucaramanga,Colombia,614860.0,7.12539,-73.1198,0,0.0
Kandahār,Afghanistan,614254.0,31.61332,65.71013,0,0.0
Ruijin,China,613894.0,25.9189329,115.9889838,0,0.0
Jiutai,China,613836.0,44.1523236,125.8387384,0,0.0
Ulyanovsk,Russia,613334.0,54.32824,48.38657,0,0.0
Susong,China,612586.0,30.1044033,115.9078489,0,0.0
Runan,China,612551.0,32.9048251,114.3037627,0,0.0
Guannan,China,612345.0,34.0886865,119.3098281,0,0.0
Yucheng,China,612056.0,29.98521,102.999,0,0.0
Nuapada,India,610382.0,20.6,82.5,0,0.0
Subarnapur,India,610183.0,20.93154,83.82486,0,0.0
Jianhu,China,609346.0,33.4401783,119.7842741,0,0.0
Huyi,China,609181.0,33.99969,108.587635,0,0.0
Ojo,Nigeria,609173.0,6.4620213,3.0796915,0,0.0
Taocheng,China,608586.0,37.7147099,115.664982,0,0.0
Chuanhui,China,607721.0,33.6291287,114.7179394,0,0.0
Hualong,China,607028.0,36.0818527,102.1851387,0,0.0
Bombali,Sierra Leone,606544.0,9.28444,-12.16449,0,0.0
Jambi City,Indonesia,606200.0,-1.6,103.61667,0,0.0
Cuttack,India,606007.0,20.5,86.25,0,0.0
Hail,Saudi Arabia,605930.0,27.52188,41.69007,0,0.0
Bhavnagar,India,605882.0,21.76287,72.15331,0,0.0
San Miguel de Tucumán,Argentina,605767.0,-26.82414,-65.2226,0,0.0
Irkutsk,Russia,605708.0,52.29778,104.29639,0,0.0
Benoni,South Africa,605344.0,-26.18848,28.32078,0,0.0
Xiuyu,China,604684.0,25.1704564,118.9849195,0,0.0
Xushui,China,604275.0,39.0378309,115.5618811,0,0.0
Kryvyi Rih,Ukraine,603904.0,47.90966,33.38044,0,0.0
Djibouti,Djibouti,603900.0,11.58901,43.14503,0,0.0
Banke,Nepal,603194.0,28.0959371,81.5166283,0,0.0
Qionglai,China,602973.0,30.4145205,103.4654411,0,0.0
Xinye,China,602827.0,32.540673,112.417082,0,0.0
Tunis,Tunisia,602560.0,36.81897,10.16579,0,0.0
Mchinji District,Malawi,602305.0,-13.7623,33.07998,0,0.0
Islamabad,Pakistan,601600.0,33.72148,73.04329,0,0.0
Maojian,China,601548.0,32.566667,110.783333,0,0.0
Jaysingpur,India,601214.0,16.78350556,74.56644167,0,0.0
Jamnagar,India,600943.0,22.47292,70.06673,0,0.0
Lubango,Angola,600751.0,-14.91717,13.4925,0,0.0
Fatehgarh Sahib,India,600163.0,30.64379,76.34787,0,0.0
Batam,Indonesia,1196396.0,1.14937,104.02491,1,0.08
Yingquan,China,598004.0,33.0246595,115.5604272,0,0.0
Luancheng,China,597130.0,37.87917,114.65167,0,0.0
Luancheng,China,597130.0,39.7519063,118.6502236,0,0.0
Kubu Raya,Indonesia,596669.0,-0.31924,109.51865,0,0.0
Changqing,China,595549.0,36.5539604,116.7464153,0,0.0
Huambo,Angola,595304.0,-12.77611,15.73917,0,0.0
Riga,Latvia,595053.0,56.946,24.10589,0,0.0
Mukalla,Yemen,594951.0,14.54248,49.12424,0,0.0
Xinji,China,594628.0,37.90278,115.20361,0,0.0
Xinji,China,594628.0,37.8837434,115.2537835,0,0.0
Linying,China,593673.0,33.815351,113.9344444,0,0.0
Tongcheng,China,593629.0,30.9914634,116.5916495,0,0.0
Tongcheng,China,593629.0,29.2481666,113.8116319,0,0.0
Xuecheng,China,593590.0,36.3592886,116.721046,0,0.0
Guangshan,China,593486.0,31.936953,114.821662,0,0.0
Ranghulu,China,592603.0,46.731266,124.7891124,0,0.0
Al Maḩallah al Kubrá,Egypt,592573.0,30.97063,31.1669,0,0.0
Vladivostok,Russia,591628.0,43.10562,131.87353,0,0.0
Sheikhupura,Pakistan,591424.0,31.71287,73.98556,0,0.0
Narmada,India,590297.0,21.87377,73.49527,0,0.0
Taiyuan,China,5304061.0,37.8699921,112.5437075,8,0.15
Linzhang,China,589003.0,36.2633625,114.5416626,0,0.0
Yuzhong,China,588717.0,35.983542,104.2485719,0,0.0
Luquan,China,588279.0,38.0855891,114.3044795,0,0.0
Luquan,China,588279.0,25.5535459,102.4693459,0,0.0
Londrina,Brazil,588125.0,-23.31028,-51.16278,0,0.0
Zahedan,Iran,587730.0,29.4963,60.8629,0,0.0
Liangqing,China,587618.0,22.4935273,108.3320604,0,0.0
Linshu,China,586024.0,34.9137378,118.6343077,0,0.0
Xishui,China,584947.0,28.3161993,106.2157148,0,0.0
Xishui,China,584947.0,30.5999444,115.2993133,0,0.0
Xiangyin,China,583984.0,28.698927,112.802196,0,0.0
New Kingston,Jamaica,583958.0,18.00747,-76.78319,0,0.0
Haiyang,China,582711.0,36.6884947,121.168464,0,0.0
Haicang,China,582519.0,24.5301236,117.9004341,0,0.0
Vilnius,Lithuania,581475.0,54.68916,25.2798,0,0.0
Sarangani,Philippines,580915.0,5.4122469,125.4217427,0,0.0
Provincia de Cantabria,Spain,580229.0,43.16667,-4.0,0,0.0
Serra,Brazil,579720.0,-20.10822,-40.30186,0,0.0
Jharsuguda District,India,579505.0,21.85,84.0,0,0.0
Nha Trang,Vietnam,579000.0,12.24507,109.19432,0,0.0
Gajapati,India,577817.0,18.91,84.2,0,0.0
Duchang,China,577684.0,29.3399738,116.327068,0,0.0
Urmia,Iran,577307.0,37.55274,45.07605,0,0.0
Xinfu,China,577089.0,38.430304,112.588658,0,0.0
Delaware County,United States,576830.0,42.47121,-91.36735,0,0.0
Delaware County,United States,576830.0,42.19809,-74.96647,0,0.0
Delaware County,United States,576830.0,36.4082,-94.80265,0,0.0
Tanda,Egypt,576648.0,30.78847,31.00192,0,0.0
Gu'an,China,576344.0,39.3372611,116.2936501,0,0.0
Ganxian,China,576310.0,25.8409215,115.0902537,0,0.0
Jammu,India,576198.0,32.75,74.83333,0,0.0
Bo District,Sierra Leone,575478.0,7.98877,-11.6734,0,0.0
Koutiala Cercle,Mali,575253.0,12.35311,-5.5839,0,0.0
Longting,China,574552.0,34.830703,114.267336,0,0.0
Gujrat,Pakistan,574240.0,32.5742,74.07542,0,0.0
Azilal Province,Morocco,574112.0,31.91667,-6.5,0,0.0
Botou,China,573842.0,38.0764217,116.5696393,0,0.0
Juiz de Fora,Brazil,573285.0,-21.76417,-43.35028,0,0.0
Shihezi,China,572772.0,44.3023,86.03694,0,0.0
Shihezi,China,572772.0,44.3017013,86.0775574,0,0.0
Oujda-Angad,Morocco,572454.0,34.236,-2.294,0,0.0
Sincan,Turkey,571889.0,39.95943,32.49567,0,0.0
Shenmu,China,571869.0,38.8363189,110.3107122,0,0.0
Nakuru,Kenya,570674.0,-0.30719,36.07225,0,0.0
Afder Zone,Ethiopia,570629.0,5.25,43.0,0,0.0
Aktobe,Kazakhstan,570475.0,50.27969,57.20718,0,0.0
Yizhou,China,569388.0,24.503824,108.6074648,0,0.0
Yizhou,China,569388.0,42.8254995,93.5130464,0,0.0
Quzhou,China,2276184.0,28.973887,118.8540924,3,0.13
Kota Bharu,Malaysia,568900.0,6.12361,102.24333,0,0.0
Beihu,China,568778.0,25.7874925,113.0053231,0,0.0
Donggang,China,568566.0,39.9685896,123.8563967,0,0.0
Yizhang,China,567970.0,25.3099567,112.8331182,0,0.0
Yuanjiang,China,567159.0,28.973928,112.560755,0,0.0
Yuanjiang,China,567159.0,23.5991148,101.9947641,0,0.0
Chisinau,Moldova,567038.0,47.00556,28.8575,0,0.0
Durgapur,India,566517.0,23.55,87.32,0,0.0
Sarthe,France,566129.0,48.00493,0.26516,0,0.0
Somme,France,565540.0,49.93141,2.27639,0,0.0
Hengdong,China,565423.0,27.0924468,113.0125808,0,0.0
Chikwawa District,Malawi,564684.0,-16.16667,34.75,0,0.0
Changyi,China,564501.0,43.9936061,126.3417682,0,0.0
Changyi,China,564501.0,36.8394346,119.4013261,0,0.0
Bokaro,India,564319.0,23.68562,85.99026,0,0.0
Marne,France,564107.0,48.99116,4.25966,0,0.0
Asmara,Eritrea,563930.0,15.33805,38.93184,0,0.0
Asansol,India,563917.0,23.68333333,86.96666667,0,0.0
Lingling,China,563556.0,26.1577504,111.5496812,0,0.0
Wendeng,China,563529.0,37.1954062,122.0834466,0,0.0
Nasīrābād,Pakistan,563315.0,28.62643,68.12925,0,0.0
Ningling,China,562657.0,34.4612994,115.3083302,0,0.0
Cili,China,562493.0,29.406935,110.921013,0,0.0
Pasco,United States,561891.0,28.30674,-82.43887,0,0.0
Benguela,Angola,561775.0,-12.57626,13.40547,0,0.0
Sheqi,China,561573.0,32.989722,112.947222,0,0.0
Zhao'an,China,560969.0,23.8594373,116.821539,0,0.0
Wenchang,China,560894.0,19.5452604,110.7932208,0,0.0
Wenchang,China,560894.0,19.6157,110.74894,0,0.0
Miluo,China,560725.0,28.8101339,113.0613336,0,0.0
Gombe,Nigeria,560000.0,10.28969,11.16729,0,0.0
Ile-Ife,Nigeria,560000.0,7.4824,4.56032,0,0.0
Gaizhou,China,559271.0,40.2134907,122.4780049,0,0.0
Hamhŭng,North Korea,559056.0,39.91833,127.53639,0,0.0
Foshan,China,9498863.0,23.0239788,113.1159558,16,0.17
Genoa,Italy,558745.0,44.40478,8.94439,0,0.0
Bloemfontein,South Africa,556637.0,-29.12107,26.214,0,0.0
Wuhai,China,556621.0,39.4857837,106.900469,0,0.0
Herāt,Afghanistan,556205.0,34.34817,62.19967,0,0.0
Maiji,China,556102.0,34.3998174,106.2290488,0,0.0
Wusheng,China,555897.0,30.370005,106.2254195,0,0.0
Lingui,China,555109.0,25.317961,110.0500475,0,0.0
uMzinyathi,South Africa,554882.0,-28.5857,30.55883,0,0.0
Kodagu,India,554519.0,12.41667,75.75,0,0.0
Weidu,China,554465.0,34.0340422,113.8209973,0,0.0
Battagram District,Pakistan,554133.0,34.68051,73.00535,0,0.0
Fugou,China,553830.0,34.0560556,114.3890051,0,0.0
Huarong,China,553800.0,30.5373381,114.7246379,0,0.0
Huarong,China,553800.0,29.5385736,112.6478374,0,0.0
Quyang,China,553772.0,38.6218749,114.7254469,0,0.0
Volusia,United States,553543.0,29.06345,-81.14857,0,0.0
Anyuan,China,553293.0,25.2277913,115.410131,0,0.0
Lancaster County,United States,552984.0,37.70171,-76.42023,0,0.0
Fengnan,China,552532.0,39.4200906,118.0709898,0,0.0
Surakarta,Indonesia,552118.0,-7.55611,110.83167,0,0.0
Meknes,Morocco,551503.0,33.97761,-5.52496,0,0.0
Zijin,China,551095.0,23.5539178,115.0419603,0,0.0
Nanded,India,550564.0,18.91667,77.5,0,0.0
Kozhikode,India,550440.0,11.5,76.0,0,0.0
Ulanqab,China,550231.0,40.9902685,113.1315646,0,0.0
Cabinda,Angola,550000.0,-5.55,12.2,0,0.0
Pristina,Kosovo,550000.0,42.67272,21.16688,0,0.0
Huaibin,China,549603.0,32.448706,115.321893,0,0.0
Shuimogou,China,549576.0,43.8293237,87.7674515,0,0.0
Amravati,India,549370.0,20.93333,77.75,0,0.0
Korla,China,549324.0,41.76055,86.15231,0,0.0
Kolhapur,India,549236.0,16.69013,74.22981,0,0.0
Neixiang,China,549068.0,33.210103,111.855308,0,0.0
Sevastopol,Ukraine,547820.0,44.58883,33.5224,0,0.0
Nellore,India,547621.0,14.08333,79.58333,0,0.0
Chengxiang,China,547422.0,25.4377531,118.7710064,0,0.0
Wudu,China,546616.0,33.2170067,105.146142,0,0.0
Samarkand,Uzbekistan,546303.0,39.65417,66.95972,0,0.0
Ibagué,Colombia,546003.0,4.43889,-75.23222,0,0.0
Wanning,China,545992.0,18.837778,110.2875,0,0.0
Wanning,China,545992.0,18.79931,110.3841,0,0.0
Provincia de Huancayo,Peru,545615.0,-12.17319,-75.16169,0,0.0
Owerri,Nigeria,545000.0,5.48363,7.03325,0,0.0
Wen'an,China,544778.0,38.8983978,116.4507448,0,0.0
Tomsk,Russia,544566.0,56.49771,84.97437,0,0.0
Valledupar,Colombia,544134.0,10.46314,-73.25322,0,0.0
Jinsha,China,544033.0,27.4586013,106.2721365,0,0.0
Kemerovo,Russia,542928.0,55.33333,86.08333,0,0.0
Sishui,China,542895.0,35.6648659,117.2457433,0,0.0
Xuanhua,China,542358.0,40.6067217,115.072195,0,0.0
Ajmer,India,542321.0,26.25,74.66667,0,0.0
Municipio Maturín,Venezuela,542259.0,9.4,-63.03333,0,0.0
Pingdu,China,542234.0,36.78444,119.94639,0,0.0
Mbeya,Tanzania,541603.0,-8.9,33.45,0,0.0
Nasiriyah,Iraq,541600.0,31.05799,46.25726,0,0.0
Brisbane,Australia,2706966.0,-27.46794,153.02809,4,0.15
Yanzhou,China,540662.0,35.5520437,116.7780517,0,0.0
Guixi,China,540572.0,28.28857,117.21329,0,0.0
Guixi,China,540572.0,28.175822,117.2209467,0,0.0
Calabar,Nigeria,540000.0,4.95893,8.32695,0,0.0
Ma'anshan,China,2159930.0,31.6866105,118.5048377,3,0.14
Liben zone,Ethiopia,539821.0,4.75,40.5,0,0.0
Tongxu,China,539222.0,34.438004,114.496567,0,0.0
Ji’an,China,538699.0,27.11716,114.97927,0,0.0
Xichuan,China,538569.0,33.0182898,111.4259483,0,0.0
Yongxing,China,538532.0,26.21126,113.185927,0,0.0
Sahiwal,Pakistan,538344.0,30.66595,73.10186,0,0.0
Yingdong,China,538187.0,32.9255199,115.8531071,0,0.0
Mile,China,538083.0,24.2400119,103.3984977,0,0.0
Kerman,Iran,537718.0,30.28321,57.07879,0,0.0
Liuzhi Special,China,536873.0,26.306247,105.323507,0,0.0
Orenburg,Russia,536515.0,51.7727,55.0988,0,0.0
Lengshuitan,China,536025.0,26.5646555,111.6328512,0,0.0
Guli,China,536000.0,28.88162,120.03308,0,0.0
Weibin,China,535833.0,35.2791075,113.8452766,0,0.0
Ebute Ikorodu,Nigeria,535619.0,6.60086,3.48818,0,0.0
Luoping,China,535565.0,24.8887552,104.305345,0,0.0
Arusha,Tanzania,535362.0,-3.36667,36.68333,0,0.0
Salta,Argentina,535303.0,-24.7859,-65.41166,0,0.0
ZhenJiang,China,3210418.0,32.1891959,119.4200069,5,0.16
Chester County,United States,534413.0,39.97314,-75.74845,0,0.0
Chester County,United States,534413.0,34.69206,-81.15953,0,0.0
Chester County,United States,534413.0,35.42175,-88.61346,0,0.0
Yiling,China,534408.0,31.0013682,111.2891277,0,0.0
Jianshui,China,534205.0,23.6850155,102.9050114,0,0.0
Okara,Pakistan,533693.0,30.81029,73.45155,0,0.0
Dantewada,India,533638.0,18.899848,81.3386752,0,0.0
Yizheng,China,532571.0,32.2750989,119.1790898,0,0.0
Ar Raqqah,Syria,531952.0,35.95283,39.00788,0,0.0
Jialing,China,531825.0,30.7066676,105.9439904,0,0.0
Amajuba,South Africa,531327.0,-27.73558,30.13537,0,0.0
Plymouth County,United States,530819.0,42.73783,-96.21404,0,0.0
Jiancaoping,China,530499.0,37.9754171,112.4977653,0,0.0
Balashikha,Russia,530311.0,55.80945,37.95806,0,0.0
Duyun,China,529688.0,26.1908679,107.4526239,0,0.0
Yazd,Iran,529673.0,31.89722,54.3675,0,0.0
Hambantota,Sri Lanka,529440.0,6.2544,81.1111,0,0.0
Gaobeidian,China,528903.0,39.2511292,116.0362658,0,0.0
Novokuznetsk,Russia,528747.0,53.7557,87.1099,0,0.0
Deh Piaz,Iran,528256.0,34.88194444,48.51472222,0,0.0
Hamadan,Iran,528256.0,34.8,48.51666667,0,0.0
Qionghai,China,528238.0,19.2425,110.46417,0,0.0
Qionghai,China,528238.0,19.2592373,110.4703445,0,0.0
Miyun,China,527683.0,40.5110749,117.08536,0,0.0
Cangzhou,China,527681.0,38.3042796,116.8511597,0,0.0
Medan,Indonesia,2109330.0,3.58333,98.66667,3,0.14
Latakia District,Syria,526888.0,35.72426,35.9415,0,0.0
Provincia de Valladolid,Spain,525398.0,41.58333,-4.66667,0,0.0
Khouribga Province,Morocco,525145.0,32.93333,-6.6,0,0.0
Port Said,Egypt,524433.0,31.25654,32.28411,0,0.0
Camden County,United States,523485.0,30.92249,-81.63639,0,0.0
Camden County,United States,523485.0,38.02704,-92.76605,0,0.0
Mazār-e Sharīf,Afghanistan,523300.0,36.70904,67.11087,0,0.0
Buca,Turkey,523193.0,38.34813,27.25053,0,0.0
Mubende District,Uganda,522015.0,0.5,31.5,0,0.0
Guangrao,China,521742.0,37.0486917,118.4129962,0,0.0
Arak,Iran,520944.0,34.09493,49.69809,0,0.0
Luanzhou,China,520102.0,39.7629676,118.6588085,0,0.0
Campos dos Goytacazes,Brazil,519259.0,-21.75227,-41.33044,0,0.0
Qui Nhon,Vietnam,519208.0,13.77648,109.22367,0,0.0
Al Fayyūm,Egypt,519047.0,29.30995,30.8418,0,0.0
Imphal West,India,517992.0,24.60998,93.88873,0,0.0
Porto Velho,Brazil,517709.0,-9.20787,-64.31064,0,0.0
Ulhasnagar,India,516584.0,19.21667,73.15,0,0.0
Loni,India,516082.0,28.75143,77.29023,0,0.0
Dayi,China,515962.0,30.5901965,103.5212874,0,0.0
Wiltshire,United Kingdom,515885.0,51.25,-1.91667,0,0.0
Batticaloa District,Sri Lanka,515733.0,7.75,81.4997,0,0.0
Siliguri,India,515574.0,26.71004,88.42851,0,0.0
Santa Marta,Colombia,515556.0,11.24348,-74.20835,0,0.0
Hui'an,China,1030626.0,24.9713304,118.6882563,1,0.1
Yiyuan,China,515058.0,36.1819283,118.1586017,0,0.0
Sheverin,Iran,514102.0,34.8075,48.57027778,0,0.0
Jāfarābād,Pakistan,513972.0,28.30104,68.19783,0,0.0
Xifeng,China,513856.0,35.6630834,107.6720418,0,0.0
Xifeng,China,513856.0,27.149068,106.663488,0,0.0
Xifeng,China,513856.0,42.7482794,124.7026314,0,0.0
Lalitpur,Nepal,513200.0,27.5482023,85.0420147,0,0.0
Midong,China,512870.0,44.4199514,87.7395034,0,0.0
Cangxi,China,512617.0,31.935409,106.1624975,0,0.0
Suichuan,China,512109.0,26.3479176,114.4061739,0,0.0
Palembang,Indonesia,1535952.0,-2.91673,104.7458,2,0.13
Tembisa,South Africa,511655.0,-25.99636,28.2268,0,0.0
Tiedong,China,511574.0,43.0774877,124.5557942,0,0.0
Carrefour,Haiti,511345.0,18.54114,-72.39922,0,0.0
Yunhe,China,511086.0,38.311667,116.85,0,0.0
Yunhe,China,511086.0,28.1185318,119.5684002,0,0.0
Bilimora,India,510879.0,20.76957,72.96134,0,0.0
Kasur,Pakistan,510875.0,31.11866,74.45025,0,0.0
Aparecida de Goiânia,Brazil,510770.0,-16.82333,-49.24389,0,0.0
Mbozi,Tanzania,510599.0,-9.0833,33.45,0,0.0
Hong'an,China,510189.0,31.2760789,114.6420279,0,0.0
Yuanling,China,510054.0,28.564372,110.571018,0,0.0
Tonghua,China,510000.0,42.123889,125.848333,0,0.0
Tonghua,China,510000.0,42.12389,125.84833,0,0.0
Panjgūr,Pakistan,509781.0,26.7375,64.2038,0,0.0
Ilemela,Tanzania,509687.0,-2.44783,33.03177,0,0.0
Penglai,China,509393.0,37.7949103,120.824268,0,0.0
Kikwit,Democratic Republic of the Congo,509367.0,-5.04098,18.81619,0,0.0
Morris,United States,509285.0,38.68743,-96.64985,0,0.0
Morris,United States,509285.0,33.11348,-94.73265,0,0.0
Ananindeua,Brazil,509227.0,-1.34611,-48.38287,0,0.0
Qingtian,China,509053.0,28.205331,120.134806,0,0.0
Florianópolis,Brazil,508826.0,-27.59667,-48.54917,0,0.0
West Delhi,India,2543243.0,28.65655,77.10068,4,0.16
Luannan,China,508538.0,39.4552585,118.6042925,0,0.0
Newcastle,Australia,508437.0,-32.92953,151.7801,0,0.0
Newcastle city centre,Australia,508437.0,-32.92885,151.7774,0,0.0
Xingye,China,508344.0,22.7936964,109.9310517,0,0.0
Boxing,China,508140.0,37.1535401,118.1046769,0,0.0
Jinzhou,China,507959.0,37.9774761,115.0723199,0,0.0
Jinzhou,China,507959.0,41.494444,121.615278,0,0.0
Kenitra,Morocco,507736.0,34.26101,-6.5802,0,0.0
Jhansi,India,507000.0,25.5,78.5,0,0.0
Gangu,China,506801.0,34.7656528,105.291805,0,0.0
Dingxing,China,505845.0,39.2128558,115.7491626,0,0.0
Kono,Sierra Leone,505767.0,8.70687,-10.93368,0,0.0
Najrān,Saudi Arabia,505652.0,17.49326,44.12766,0,0.0
Nagqu,China,504838.0,32.663572,88.931464,0,0.0
Surulere,Nigeria,504409.0,6.4900983,3.3025143,0,0.0
Liujiang,China,503772.0,24.1880418,109.2157342,0,0.0
Qingdao,China,10071722.0,36.0663249,120.3777659,19,0.19
Yiliang,China,503376.0,27.6406039,104.226149,0,0.0
Clark County,United States,503311.0,34.05096,-93.17637,0,0.0
Clark County,United States,503311.0,44.28398,-112.35135,0,0.0
Clark County,United States,503311.0,39.33357,-87.78772,0,0.0
Clark County,United States,503311.0,38.47718,-85.70728,0,0.0
Clark County,United States,503311.0,37.23552,-99.82031,0,0.0
Clark County,United States,503311.0,40.41036,-91.7384,0,0.0
Clark County,United States,503311.0,39.91678,-83.7839,0,0.0
Clark County,United States,503311.0,44.85825,-97.7295,0,0.0
Clark County,United States,503311.0,44.73471,-90.61208,0,0.0
Mazatlan,Mexico,501441.0,25.18909,-99.82865,0,0.0
Taizhou,China,4512762.0,28.6581723,121.4163876,8,0.18
Huangzhou,China,501200.0,30.4369576,114.8750766,0,0.0
Homyel',Belarus,501102.0,52.4345,30.9754,0,0.0
Acheng,China,500327.0,45.54545,126.97703,0,0.0
Acheng,China,500327.0,45.5362499,126.9694447,0,0.0
LianYunGang,China,2001009.0,34.5933134,119.2171662,3,0.15
10th of Ramadan,Egypt,500000.0,30.2993939,31.6141789,0,0.0
Hīt District,Iraq,500000.0,33.73482,42.68228,0,0.0
Sukkur,Pakistan,499900.0,27.70323,68.85889,0,0.0
Mangaluru,India,499487.0,12.91723,74.85603,0,0.0
Mizhou,China,499285.0,35.99472,119.3975,0,0.0
Guangde,China,499132.0,30.8967914,119.0245474,0,0.0
Anlu,China,498356.0,31.3066219,113.6480203,0,0.0
Baofeng,China,498157.0,33.911944,113.03,0,0.0
Chengmai,China,497953.0,19.691111,109.986111,0,0.0
Karagandy,Kazakhstan,497777.0,49.80187,73.10211,0,0.0
Louxing,China,497171.0,27.7333455,111.9960728,0,0.0
Cheboksary,Russia,497061.0,56.13222,47.25194,0,0.0
Manche,France,496815.0,49.03822,-1.31865,0,0.0
Huaining,China,496683.0,30.5820645,116.4072317,0,0.0
Jinzhai,China,496501.0,31.4561936,115.4562727,0,0.0
Meizhou,China,992351.0,24.2918414,116.1171428,1,0.1
Ada,United States,494967.0,43.45112,-116.24109,0,0.0
Xingping,China,494887.0,34.2993736,108.4830556,0,0.0
Fezile Dabi,South Africa,494777.0,-27.33918,27.71927,0,0.0
Jiaozhou,China,987820.0,36.2640866,120.0284928,1,0.1
Shuocheng,China,493331.0,39.288188,112.4563014,0,0.0
Luoshan,China,493208.0,32.031964,114.436626,0,0.0
Nyala,Sudan,492984.0,12.04888,24.88069,0,0.0
Bissau,Guinea-Bissau,492004.0,11.85,-15.56666667,0,0.0
Lantian,China,491975.0,34.0901252,109.4021595,0,0.0
Pekanbaru,Indonesia,983356.0,0.51667,101.44167,1,0.1
Lezhi,China,490573.0,30.3121951,105.0267469,0,0.0
Dong'an,China,490385.0,44.4105272,129.797811,0,0.0
Dong'an,China,490385.0,26.5209952,111.3769459,0,0.0
Xingcheng,China,490300.0,40.5621218,120.4793038,0,0.0
Yueyanglou,China,980401.0,29.3346165,113.2167074,1,0.1
Qingbaijiang,China,490091.0,30.7902171,104.3296044,0,0.0
Port Sudan,Sudan,489725.0,19.61745,37.21644,0,0.0
Macapá,Brazil,489676.0,0.03889,-51.06639,0,0.0
Yekaterinburg,Russia,1468833.0,56.8519,60.6122,2,0.14
Huantai,China,489479.0,36.9590987,118.0926284,0,0.0
Zengcheng,China,1466331.0,23.3473006,113.7702928,2,0.14
Kaliningrad,Russia,488690.0,54.70649,20.51095,0,0.0
Yucheng,China,488014.0,34.369154,115.902169,0,0.0
Yucheng,China,488014.0,36.933782,116.6329789,0,0.0
Yucheng,China,488014.0,29.9883761,102.9941955,0,0.0
Penza,Russia,487978.0,53.20066,45.00464,0,0.0
Washoe,United States,486492.0,40.66542,-119.6643,0,0.0
Wanzai,China,486435.0,28.2186512,114.3323135,0,0.0
Dawu,China,486153.0,31.609427,114.312082,0,0.0
Zhangshu,China,485649.0,28.0265539,115.4385985,0,0.0
Saharanpur,India,484873.0,29.9,77.68333,0,0.0
Liubei,China,484765.0,24.4252701,109.394302,0,0.0
Vellore,India,484690.0,12.86,79.035,0,0.0
Matale District,Sri Lanka,484531.0,7.6598,80.7073,0,0.0
Ningcheng,China,484397.0,41.5789721,118.8646981,0,0.0
Huanghua,China,484313.0,38.366667,117.333333,0,0.0
Yueqing,China,1452707.0,28.1178498,120.9795761,2,0.14
Donghe,China,484218.0,40.5789241,110.1962906,0,0.0
Enping,China,483907.0,22.2525211,112.2876964,0,0.0
Xiaochang,China,483367.0,31.2469141,114.0377372,0,0.0
Lipetsk,Russia,483040.0,52.60311,39.57076,0,0.0
Jijiga,Ethiopia,483000.0,9.35,42.8,0,0.0
Najaf,Iraq,482576.0,32.02594,44.34625,0,0.0
Chirang,India,482162.0,26.52527,90.49066,0,0.0
Ziliujing,China,481981.0,29.2771535,104.7044488,0,0.0
Xichang,China,481796.0,27.89642,102.26341,0,0.0
Province du Ganzourgou,Burkina Faso,481794.0,12.26667,-0.76667,0,0.0
Malegaon,India,481228.0,20.54966,74.53462,0,0.0
Bandarban,Bangladesh,481106.0,22.0,92.33333,0,0.0
Cairo,Egypt,9606916.0,30.06263,31.24967,19,0.2
Hailun,China,480216.0,47.4565,126.95368,0,0.0
Hailun,China,480216.0,47.4165095,126.8214728,0,0.0
Lintao,China,480149.0,35.446596,103.9799485,0,0.0
Kouritenga,Burkina Faso,479930.0,12.2,-0.3,0,0.0
Sylhet,Bangladesh,479837.0,24.8918911,91.7355495,0,0.0
Longmatan,China,479697.0,28.9703018,105.4495236,0,0.0
Hanjiang,China,479605.0,25.5790523,118.8827112,0,0.0
Okene,Nigeria,479178.0,7.55122,6.23589,0,0.0
Senapati,India,479148.0,25.26705,94.02237,0,0.0
Fengshun,China,478731.0,23.8972166,116.2476093,0,0.0
East London,South Africa,478676.0,-33.01529,27.91162,0,0.0
Xinle,China,478529.0,38.3449262,114.6791124,0,0.0
Salima District,Malawi,478346.0,-13.71959,34.40184,0,0.0
Tianyuan,China,478309.0,27.6962209,113.0678551,0,0.0
Yangdong,China,478299.0,22.0203937,112.0561249,0,0.0
Hargeisa,Somalia,477876.0,9.56305556,44.0675,0,0.0
Oyam,Uganda,477464.0,2.38129,32.50071,0,0.0
Xiaoyi,China,477289.0,37.085434,111.633819,0,0.0
Weihui,China,476867.0,35.4126425,114.0633095,0,0.0
Yingcheng,China,476596.0,30.9333642,113.5664812,0,0.0
Xiapu,China,475936.0,26.7579318,119.8092453,0,0.0
Eldoret,Kenya,475716.0,0.52036,35.26993,0,0.0
Vereeniging,South Africa,474681.0,-26.67313,27.92615,0,0.0
Gaya,India,474093.0,24.79686,85.00385,0,0.0
Shishou,China,473707.0,29.7228427,112.4189037,0,0.0
Shouguang,China,473620.0,36.88,118.7375,0,0.0
Kankan Prefecture,Guinea,473359.0,10.271,-9.178,0,0.0
Luotian,China,473195.0,30.960809,115.4682617,0,0.0
Tulare County,United States,473117.0,36.22016,-118.80047,0,0.0
Shangzhou,China,472978.0,33.8648033,109.9358876,0,0.0
Youjiang,China,472086.0,23.9724514,106.5083299,0,0.0
Kirov,Russia,471754.0,58.59665,49.66007,0,0.0
Morogoro,Tanzania,471409.0,-6.82102,37.66122,0,0.0
Seeb,Oman,470878.0,23.67027,58.18911,0,0.0
Mbandaka,Democratic Republic of the Congo,470307.0,0.04865,18.26034,0,0.0
Mykolaiv,Ukraine,470011.0,49.52372,23.98522,0,0.0
Yicheng,China,469417.0,32.941419,113.93606,0,0.0
Yicheng,China,469417.0,31.7210346,112.2527375,0,0.0
Yicheng,China,469417.0,34.7117635,117.5402508,0,0.0
Yicheng,China,469417.0,35.6971642,111.8339712,0,0.0
Hongshan,China,469079.0,42.1893903,118.984742,0,0.0
Zongyang,China,469051.0,30.8548773,117.0815694,0,0.0
Departamento de Confluencia,Argentina,468794.0,-38.83333,-68.83333,0,0.0
Qiubei,China,468172.0,24.0494878,104.1752252,0,0.0
Tel Aviv,Israel,467875.0,32.08088,34.78057,0,0.0
Nanjiang,China,467609.0,32.3081394,106.8394239,0,0.0
Tula,Russia,466609.0,54.19609,37.61822,0,0.0
São João de Meriti,Brazil,466536.0,-22.80389,-43.37222,0,0.0
Nanzheng,China,466244.0,32.897222,106.899167,0,0.0
Belford Roxo,Brazil,466096.0,-22.76417,-43.39944,0,0.0
Gondar,Ethiopia,466000.0,12.6,37.46667,0,0.0
Astrakhan,Russia,465990.0,46.34968,48.04076,0,0.0
Wudi,China,465837.0,37.7699483,117.6199106,0,0.0
Kollo Department,Niger,465399.0,13.576,2.452,0,0.0
Constantine,Algeria,465138.0,36.365,6.61472,0,0.0
Chuanying,China,464893.0,43.8474551,126.2868438,0,0.0
Vũng Tàu,Vietnam,464860.0,10.34599,107.08426,0,0.0
Maracay,Venezuela,464700.0,10.23535,-67.59113,0,0.0
Tamale,Ghana,464316.0,9.40079,-0.8393,0,0.0
Rushan,China,464078.0,36.9199831,121.5346952,0,0.0
Pidu,China,1390913.0,30.7980107,103.8986134,2,0.14
Shuangta,China,463543.0,41.5754333,120.5383704,0,0.0
Shangzhi,China,463358.0,45.21406,127.97426,0,0.0
Shangzhi,China,463358.0,45.2133989,127.9634816,0,0.0
Jiangdu,China,926577.0,32.4374578,119.5647288,1,0.11
Panjin,China,1389691.0,41.1796147,122.0524321,2,0.14
Dĩ An,Vietnam,463023.0,10.90682,106.7694,0,0.0
Isnā,Egypt,462787.0,25.29336,32.55402,0,0.0
Wangjiang,China,462367.0,30.2347024,116.349449,0,0.0
Muping,China,462323.0,37.3870896,121.5956195,0,0.0
Davao,Philippines,1848947.0,7.07306,125.61278,3,0.16
Qiaojia,China,462173.0,27.0186922,103.1186512,0,0.0
Burlington County,United States,461860.0,39.87769,-74.6682,0,0.0
Lohardaga,India,461790.0,23.5,84.6,0,0.0
Agege,Nigeria,461743.0,6.6152236,3.300297,0,0.0
Peng'an,China,461485.0,30.9870855,106.4429027,0,0.0
Joinville,Brazil,461304.0,-26.30444,-48.84556,0,0.0
Ḩamāh,Syria,460602.0,35.13179,36.75783,0,0.0
Pierce County,United States,921130.0,47.03764,-122.13735,1,0.11
Jalgaon,India,460468.0,21.00292,75.56602,0,0.0
Jingyang,China,460108.0,34.5306881,108.8311281,0,0.0
Bardiya,Nepal,459900.0,28.3720167,81.0831683,0,0.0
Rạch Giá,Vietnam,459860.0,10.01245,105.08091,0,0.0
Dr Ruth Segomotsi Mompati,South Africa,459357.0,-26.63765,24.27462,0,0.0
Xiangshui,China,459156.0,34.2011121,119.5722532,0,0.0
Santo Domingo de los Colorados,Ecuador,458580.0,-0.25305,-79.17536,0,0.0
Xiajin,China,458112.0,36.9478323,115.9957995,0,0.0
Mek'ele,Ethiopia,457900.0,13.49667,39.47528,0,0.0
Province du Passoré,Burkina Faso,457781.0,12.91667,-2.16667,0,0.0
Sinan,China,457745.0,27.8954071,108.113086,0,0.0
Kurnool,India,457633.0,15.58333,78.33333,0,0.0
Tallinn,Estonia,457572.0,59.43696,24.75353,0,0.0
Pinggu,China,457313.0,40.2047124,116.8390657,0,0.0
Nazrēt,Ethiopia,456900.0,8.55,39.26667,0,0.0
East Baton Rouge,United States,456781.0,30.53824,-91.09562,0,0.0
York County,United States,456438.0,43.42923,-70.67015,0,0.0
York County,United States,456438.0,34.97475,-81.18442,0,0.0
Imphal East,India,456113.0,24.7911,93.9348,0,0.0
Jianping,China,455826.0,41.8245142,119.6581838,0,0.0
Al Ḩillah,Iraq,455700.0,32.46367,44.41963,0,0.0
Nanzhang,China,455690.0,31.7769206,111.8331767,0,0.0
Pingguo,China,455643.0,23.5576943,107.5643907,0,0.0
Malanje,Angola,455000.0,-9.54015,16.34096,0,0.0
Namp’o,North Korea,455000.0,38.7375,125.40778,0,0.0
Xinhui,China,909277.0,22.456,113.0482,1,0.11
Manizales,Colombia,454494.0,5.06889,-75.51738,0,0.0
King,United States,2269675.0,47.49084,-121.83583,4,0.18
Taishan,China,907744.0,36.1930772,117.1289741,1,0.11
Anxin,China,453723.0,38.8755255,115.871027,0,0.0
Kahama,Tanzania,453654.0,-3.83333,32.6,0,0.0
Jiawang,China,453555.0,34.4372996,117.4592113,0,0.0
Jianchang,China,453436.0,40.708153,119.8336304,0,0.0
Gaoping,China,453054.0,35.7984314,112.9229854,0,0.0
Gaoping,China,453054.0,30.7956272,106.2581565,0,0.0
Canberra,Australia,452670.0,-35.28346,149.12807,0,0.0
Ramgundam,India,452261.0,18.80084,79.45206,0,0.0
Province de la Tapoa,Burkina Faso,451647.0,12.0,1.75,0,0.0
Changling,China,451620.0,44.26532,124.00045,0,0.0
Changling,China,451620.0,44.3437501,123.5873275,0,0.0
Huichang,China,451513.0,25.4630192,115.7433035,0,0.0
Heishan,China,451206.0,41.7915734,122.1872868,0,0.0
Chengqu,China,450959.0,22.7817608,115.3599642,0,0.0
Chengqu,China,450959.0,0.0,0.0,0,0.0
Boke Prefecture,Guinea,450278.0,11.08333,-14.41667,0,0.0
Wenshan City,China,450000.0,23.36306,104.25047,0,0.0
Bắc Giang,Vietnam,450000.0,21.27307,106.1946,0,0.0
Rajshahi,Bangladesh,449756.0,24.4207336,88.2960214,0,0.0
Xianghe,China,449038.0,39.7362559,117.0303934,0,0.0
Santa Barbara County,United States,448229.0,34.53834,-120.03078,0,0.0
Nam Định,Vietnam,448225.0,20.43389,106.17729,0,0.0
Eslamshahr,Iran,448129.0,35.55222,51.23504,0,0.0
Qinyang,China,447487.0,35.0856355,112.942221,0,0.0
Dangtu,China,446991.0,31.4948975,118.2946948,0,0.0
Provincia de León,Spain,446445.0,42.66667,-6.0,0,0.0
Jinwan,China,446369.0,22.1176731,113.3575196,0,0.0
Patiala,India,446246.0,30.33625,76.3922,0,0.0
Yantai,China,2227733.0,37.461928,121.4425255,4,0.18
Savoie,France,445288.0,45.46805,6.48547,0,0.0
Boksburg,South Africa,445168.0,-26.21197,28.25958,0,0.0
Santiago de Cuba,Cuba,444851.0,20.02083,-75.82667,0,0.0
Gucheng,China,444493.0,37.3490348,115.9646818,0,0.0
Gucheng,China,444493.0,37.3490348,115.9646818,0,0.0
Dongtai,China,888410.0,32.8705885,120.3153607,1,0.11
Dezful,Iran,443971.0,32.56667,48.78333,0,0.0
Wulian,China,443600.0,35.7575847,119.2024296,0,0.0
Kupang,Indonesia,442758.0,-10.17083,123.60694,0,0.0
Bijiang,China,442076.0,27.8182643,109.2609112,0,0.0
Chenggu,China,442035.0,33.341944,107.196667,0,0.0
Suiping,China,441370.0,33.1598563,113.8983142,0,0.0
Qianshan,China,441224.0,30.7641631,116.1833794,0,0.0
Qianshan,China,441224.0,40.9847998,122.9324486,0,0.0
Huairou,China,441040.0,40.6477972,116.2559135,0,0.0
Korhogo,Ivory Coast,440926.0,9.45803,-5.62961,0,0.0
Piracicaba,Brazil,440835.0,-22.71579,-47.77297,0,0.0
Jefferson Parish,United States,440781.0,29.68097,-90.09798,0,0.0
Beipiao,China,439998.0,41.8000713,120.7655332,0,0.0
Mianzhu,China,439958.0,31.4178432,104.1725852,0,0.0
Mangshi,China,439931.0,24.4369028,98.5886667,0,0.0
Kindia,Guinea,439614.0,10.08333,-12.8,0,0.0
Monterey County,United States,439035.0,36.23977,-121.3089,0,0.0
Mawlamyine,Myanmar,438861.0,16.49051,97.62825,0,0.0
Vienne,France,438688.0,46.53528,0.45201,0,0.0
Balaka District,Malawi,438379.0,-15.04839,35.0591,0,0.0
Jinchang,China,438026.0,38.449693,102.058389,0,0.0
Montes Claros,Brazil,437601.0,-16.58789,-43.89995,0,0.0
Province du Gourma,Burkina Faso,437242.0,12.08333,0.5,0,0.0
Hai'an,China,874334.0,32.5348763,120.4629239,1,0.11
Sunch’ŏn,North Korea,437000.0,39.43167,125.93278,0,0.0
Sangli,India,436639.0,17.11202,74.7699,0,0.0
Lobito,Angola,436467.0,-12.3644,13.53601,0,0.0
Bei’an,China,436444.0,48.26667,126.6,0,0.0
West Coast,South Africa,436403.0,-32.09506,18.62695,0,0.0
Huimin,China,436042.0,37.4892875,117.5034499,0,0.0
Suxian,China,435836.0,25.7990322,113.106742,0,0.0
Provincia de Santa,Peru,435807.0,-9.0,-78.25,0,0.0
Qixia,China,435405.0,37.3352456,120.8447987,0,0.0
Ulan-Ude,Russia,435067.0,51.82721,107.60627,0,0.0
Ado-Ekiti,Nigeria,435000.0,7.62329,5.22087,0,0.0
Saint Petersburg,Russia,5652922.0,59.93863,30.31413,12,0.21
Ruyang,China,434770.0,34.0799315,112.4373717,0,0.0
Attock Tehsil,Pakistan,434705.0,33.76671,72.35977,0,0.0
Kursk,Russia,434696.0,51.73733,36.18735,0,0.0
Noun,Cameroon,434542.0,5.64123,10.9184,0,0.0
Jian'ou,China,434451.0,26.9905945,117.8116984,0,0.0
